ContactLocatorSYS2.txt

Target: DefaultSC

Observer: Avilla
Start Time (UTC)            Stop Time (UTC)               Duration (s)         
13 Feb 2026 03:46:42.958    13 Feb 2026 03:48:31.220      108.26239841    
13 Feb 2026 14:29:07.009    13 Feb 2026 14:32:45.345      218.33558148    
14 Feb 2026 03:40:05.666    14 Feb 2026 03:42:41.462      155.79624904    
14 Feb 2026 14:22:49.078    14 Feb 2026 14:26:32.766      223.68795985    
15 Feb 2026 03:33:37.128    15 Feb 2026 03:36:42.283      185.15479277    
15 Feb 2026 14:16:34.579    15 Feb 2026 14:20:17.392      222.81278763    
16 Feb 2026 03:27:13.403    16 Feb 2026 03:30:37.629      204.22690788    
16 Feb 2026 14:10:23.499    16 Feb 2026 14:13:59.239      215.74052948    
17 Feb 2026 03:20:53.168    17 Feb 2026 03:24:28.829      215.66104232    
17 Feb 2026 14:04:16.108    17 Feb 2026 14:07:38.040      201.93213557    
18 Feb 2026 03:14:35.878    18 Feb 2026 03:18:16.430      220.55190043    
18 Feb 2026 13:58:13.119    18 Feb 2026 14:01:13.085      179.96605608    
19 Feb 2026 03:08:21.367    19 Feb 2026 03:12:00.606      219.23914383    
19 Feb 2026 13:52:16.274    19 Feb 2026 13:54:42.636      146.36165301    


Number of events : 14


Observer: Barcelona
Start Time (UTC)            Stop Time (UTC)               Duration (s)         
13 Feb 2026 02:12:03.647    13 Feb 2026 02:13:03.565      59.918150597    
13 Feb 2026 14:30:19.292    13 Feb 2026 14:31:35.645      76.353096217    
14 Feb 2026 14:23:29.537    14 Feb 2026 14:25:52.080      142.54288066    
15 Feb 2026 14:16:55.152    15 Feb 2026 14:19:53.787      178.63493651    
16 Feb 2026 14:10:27.630    16 Feb 2026 14:13:49.268      201.63783050    
17 Feb 2026 03:21:09.238    17 Feb 2026 03:23:01.835      112.59699318    
17 Feb 2026 14:04:04.800    17 Feb 2026 14:07:40.695      215.89553267    
18 Feb 2026 03:14:33.141    18 Feb 2026 03:17:10.783      157.64290185    
18 Feb 2026 13:57:45.764    18 Feb 2026 14:01:28.964      223.20025850    
19 Feb 2026 03:08:05.100    19 Feb 2026 03:11:11.006      185.90686605    
19 Feb 2026 13:51:30.130    19 Feb 2026 13:55:14.468      224.33825618    


Number of events : 11


Observer: Gibraltar
Start Time (UTC)            Stop Time (UTC)               Duration (s)         
13 Feb 2026 03:48:11.049    13 Feb 2026 03:49:19.345      68.296477210    
13 Feb 2026 14:28:00.004    13 Feb 2026 14:31:44.510      224.50588031    
14 Feb 2026 03:41:22.280    14 Feb 2026 03:43:41.294      139.01395410    
14 Feb 2026 14:21:47.184    14 Feb 2026 14:25:27.930      220.74567263    
15 Feb 2026 03:34:49.887    15 Feb 2026 03:37:46.209      176.32265871    
15 Feb 2026 14:15:38.276    15 Feb 2026 14:19:08.060      209.78389877    
16 Feb 2026 03:28:24.084    16 Feb 2026 03:31:43.887      199.80278055    
16 Feb 2026 14:09:33.846    16 Feb 2026 14:12:44.340      190.49451310    
17 Feb 2026 03:22:02.620    17 Feb 2026 03:25:36.584      213.96355920    
17 Feb 2026 14:03:35.325    17 Feb 2026 14:06:15.347      160.02212351    
18 Feb 2026 03:15:44.645    18 Feb 2026 03:19:25.160      220.51508428    
18 Feb 2026 13:57:47.113    18 Feb 2026 13:59:36.688      109.57498967    
19 Feb 2026 03:09:29.868    19 Feb 2026 03:13:09.909      220.04100184    


Number of events : 13


Observer: Granada
Start Time (UTC)            Stop Time (UTC)               Duration (s)         
13 Feb 2026 14:28:12.689    13 Feb 2026 14:31:46.366      213.67729290    
14 Feb 2026 14:21:53.032    14 Feb 2026 14:25:35.470      222.43759761    
15 Feb 2026 03:34:57.796    15 Feb 2026 03:36:52.696      114.90034583    
15 Feb 2026 14:15:37.210    15 Feb 2026 14:19:21.358      224.14840262    
16 Feb 2026 03:28:20.942    16 Feb 2026 03:31:02.345      161.40328586    
16 Feb 2026 14:09:25.087    16 Feb 2026 14:13:04.170      219.08303172    
17 Feb 2026 03:21:52.764    17 Feb 2026 03:25:02.661      189.89646484    
17 Feb 2026 14:03:16.861    17 Feb 2026 14:06:43.714      206.85363875    
18 Feb 2026 03:15:29.544    18 Feb 2026 03:18:57.371      207.82681260    
18 Feb 2026 13:57:13.178    18 Feb 2026 14:00:19.348      186.17033211    
19 Feb 2026 03:09:10.019    19 Feb 2026 03:12:47.745      217.72624184    
19 Feb 2026 13:51:15.660    19 Feb 2026 13:53:49.455      153.79455469    


Number of events : 12


Observer: Lausanne
Start Time (UTC)            Stop Time (UTC)               Duration (s)         
13 Feb 2026 02:09:31.657    13 Feb 2026 02:12:37.601      185.94477855    
13 Feb 2026 12:56:15.409    13 Feb 2026 12:58:42.864      147.45505352    
14 Feb 2026 02:03:29.011    14 Feb 2026 02:06:07.145      158.13396267    
14 Feb 2026 12:50:26.071    14 Feb 2026 12:52:05.521      99.449594796    
15 Feb 2026 01:57:34.150    15 Feb 2026 01:59:28.244      114.09326474    
17 Feb 2026 14:06:15.953    17 Feb 2026 14:07:51.448      95.495023043    
18 Feb 2026 03:13:45.645    18 Feb 2026 03:14:49.399      63.754189876    
18 Feb 2026 13:59:32.719    18 Feb 2026 14:02:00.863      148.14416069    
19 Feb 2026 03:06:59.930    19 Feb 2026 03:09:08.434      128.50369880    
19 Feb 2026 13:53:00.313    19 Feb 2026 13:56:00.098      179.78568056    


Number of events : 10


Observer: Lisbon
Start Time (UTC)            Stop Time (UTC)               Duration (s)         
13 Feb 2026 03:46:42.454    13 Feb 2026 03:49:56.632      194.17789530    
13 Feb 2026 14:28:53.293    13 Feb 2026 14:32:27.591      214.29783652    
14 Feb 2026 03:40:20.004    14 Feb 2026 03:43:50.521      210.51674847    
14 Feb 2026 14:22:46.795    14 Feb 2026 14:26:05.643      198.84741898    
15 Feb 2026 03:34:00.961    15 Feb 2026 03:37:40.357      219.39620990    
15 Feb 2026 14:16:45.153    15 Feb 2026 14:19:39.483      174.32991875    
16 Feb 2026 03:27:44.924    16 Feb 2026 03:31:26.542      221.61832682    
16 Feb 2026 14:10:50.702    16 Feb 2026 14:13:06.783      136.08144323    
17 Feb 2026 03:21:31.844    17 Feb 2026 03:25:09.130      217.28598416    
17 Feb 2026 14:05:14.013    17 Feb 2026 14:06:16.977      62.964073336    
18 Feb 2026 03:15:21.985    18 Feb 2026 03:18:47.860      205.87454592    
19 Feb 2026 03:09:16.062    19 Feb 2026 03:12:22.019      185.95685447    


Number of events : 12


Observer: Messina
Start Time (UTC)            Stop Time (UTC)               Duration (s)         
13 Feb 2026 02:11:16.844    13 Feb 2026 02:14:21.691      184.84760147    
13 Feb 2026 12:53:09.675    13 Feb 2026 12:56:46.599      216.92369861    
14 Feb 2026 02:04:52.708    14 Feb 2026 02:08:17.531      204.82299384    
14 Feb 2026 12:47:02.232    14 Feb 2026 12:50:25.452      203.21917062    
15 Feb 2026 01:58:32.336    15 Feb 2026 02:02:08.958      216.62218332    
15 Feb 2026 12:40:59.411    15 Feb 2026 12:44:00.325      180.91408610    
16 Feb 2026 01:52:15.122    16 Feb 2026 01:55:56.582      221.46071980    
16 Feb 2026 12:35:03.084    16 Feb 2026 12:37:29.351      146.26712337    
17 Feb 2026 01:46:00.888    17 Feb 2026 01:49:40.588      219.70003420    
17 Feb 2026 12:29:20.078    17 Feb 2026 12:30:45.709      85.630815395    
18 Feb 2026 01:39:49.771    18 Feb 2026 01:43:20.839      211.06799429    
19 Feb 2026 01:33:42.290    19 Feb 2026 01:36:56.821      194.53070343    


Number of events : 12


Observer: Naples
Start Time (UTC)            Stop Time (UTC)               Duration (s)         
13 Feb 2026 02:10:25.559    13 Feb 2026 02:13:55.752      210.19243546    
13 Feb 2026 12:53:56.945    13 Feb 2026 12:57:31.994      215.04890994    
14 Feb 2026 02:04:06.459    14 Feb 2026 02:07:45.619      219.15943539    
14 Feb 2026 12:47:49.776    14 Feb 2026 12:51:10.596      200.82015144    
15 Feb 2026 01:57:50.139    15 Feb 2026 02:01:32.053      221.91394010    
15 Feb 2026 12:41:47.002    15 Feb 2026 12:44:45.452      178.45041573    
16 Feb 2026 01:51:36.532    16 Feb 2026 01:55:15.124      218.59126997    
16 Feb 2026 12:35:50.419    16 Feb 2026 12:38:14.771      144.35175299    
17 Feb 2026 01:45:25.838    17 Feb 2026 01:48:54.633      208.79479889    
17 Feb 2026 12:30:06.422    17 Feb 2026 12:31:32.163      85.741261952    
18 Feb 2026 01:39:18.613    18 Feb 2026 01:42:30.027      191.41353127    
19 Feb 2026 01:33:16.126    19 Feb 2026 01:36:00.035      163.90860602    


Number of events : 12


Observer: Nicosia
Start Time (UTC)            Stop Time (UTC)               Duration (s)         
13 Feb 2026 00:36:32.959    13 Feb 2026 00:40:14.902      221.94276494    
14 Feb 2026 00:30:18.937    14 Feb 2026 00:33:58.907      219.96967101    
15 Feb 2026 00:24:08.374    15 Feb 2026 00:27:38.839      210.46584696    
16 Feb 2026 00:18:01.892    16 Feb 2026 00:21:14.082      192.19038910    
17 Feb 2026 00:12:01.043    17 Feb 2026 00:14:43.085      162.04206672    
17 Feb 2026 12:27:54.485    17 Feb 2026 12:28:46.157      51.672023465    
18 Feb 2026 00:06:10.612    18 Feb 2026 00:08:01.067      110.45504613    
18 Feb 2026 12:20:55.176    18 Feb 2026 12:23:12.904      137.72814993    
19 Feb 2026 12:14:18.856    19 Feb 2026 12:17:17.251      178.39528156    


Number of events : 9


Observer: Poitiers
Start Time (UTC)            Stop Time (UTC)               Duration (s)         
13 Feb 2026 14:31:33.118    13 Feb 2026 14:33:21.544      108.42675422    
14 Feb 2026 03:38:41.860    14 Feb 2026 03:40:18.494      96.634582593    
14 Feb 2026 14:24:52.907    14 Feb 2026 14:27:28.001      155.09424715    
15 Feb 2026 03:32:04.326    15 Feb 2026 03:34:29.171      144.84554337    
15 Feb 2026 14:18:21.782    15 Feb 2026 14:21:26.025      184.24317562    
16 Feb 2026 03:25:35.448    16 Feb 2026 03:28:30.531      175.08239876    
16 Feb 2026 14:11:55.852    16 Feb 2026 14:15:19.501      203.64953096    
17 Feb 2026 03:19:11.029    17 Feb 2026 03:22:26.772      195.74234096    
17 Feb 2026 14:05:33.744    17 Feb 2026 14:09:09.799      216.05453087    
18 Feb 2026 03:12:49.696    18 Feb 2026 03:16:19.270      209.57335846    
18 Feb 2026 13:59:14.824    18 Feb 2026 14:02:57.552      222.72706245    
19 Feb 2026 03:06:30.846    19 Feb 2026 03:10:08.629      217.78347536    
19 Feb 2026 13:52:58.787    19 Feb 2026 13:56:43.062      224.27455676    


Number of events : 13


Observer: Porto
Start Time (UTC)            Stop Time (UTC)               Duration (s)         
13 Feb 2026 03:45:53.426    13 Feb 2026 03:49:15.254      201.82848559    
13 Feb 2026 14:29:32.780    13 Feb 2026 14:33:14.374      221.59492277    
14 Feb 2026 03:39:32.611    14 Feb 2026 03:43:07.195      214.58318437    
14 Feb 2026 14:23:22.616    14 Feb 2026 14:26:55.443      212.82666698    
15 Feb 2026 03:33:14.696    15 Feb 2026 03:36:55.580      220.88397718    
15 Feb 2026 14:17:16.156    15 Feb 2026 14:20:33.455      197.29804063    
16 Feb 2026 03:26:59.454    16 Feb 2026 03:30:40.640      221.18578667    
16 Feb 2026 14:11:14.243    16 Feb 2026 14:14:07.571      173.32780659    
17 Feb 2026 03:20:46.925    17 Feb 2026 03:24:22.337      215.41231322    
17 Feb 2026 14:05:18.985    17 Feb 2026 14:07:35.688      136.70247027    
18 Feb 2026 03:14:37.422    18 Feb 2026 03:18:00.358      202.93554871    
18 Feb 2026 13:59:39.073    18 Feb 2026 14:00:49.118      70.045581646    
19 Feb 2026 03:08:31.696    19 Feb 2026 03:11:33.954      182.25821606    


Number of events : 13


Observer: Rennes
Start Time (UTC)            Stop Time (UTC)               Duration (s)         
13 Feb 2026 03:44:22.310    13 Feb 2026 03:46:43.642      141.33251582    
13 Feb 2026 14:31:29.259    13 Feb 2026 14:34:13.386      164.12751828    
14 Feb 2026 03:37:53.211    14 Feb 2026 03:40:45.324      172.11275962    
14 Feb 2026 14:24:59.934    14 Feb 2026 14:28:09.644      189.70982458    
15 Feb 2026 03:31:28.569    15 Feb 2026 03:34:41.895      193.32585399    
15 Feb 2026 14:18:35.137    15 Feb 2026 14:22:02.019      206.88261698    
16 Feb 2026 03:25:06.962    16 Feb 2026 03:28:34.779      207.81744802    
16 Feb 2026 14:12:13.819    16 Feb 2026 14:15:51.558      217.73892125    
17 Feb 2026 03:18:47.762    17 Feb 2026 03:22:24.604      216.84211870    
17 Feb 2026 14:05:55.473    17 Feb 2026 14:09:38.766      223.29378010    
18 Feb 2026 03:12:30.681    18 Feb 2026 03:16:11.658      220.97767449    
18 Feb 2026 13:59:39.852    18 Feb 2026 14:03:23.886      224.03402390    
19 Feb 2026 03:06:15.627    19 Feb 2026 03:09:56.035      220.40807294    
19 Feb 2026 13:53:26.886    19 Feb 2026 13:57:06.989      220.10305737    


Number of events : 14


Observer: Strasbourg
Start Time (UTC)            Stop Time (UTC)               Duration (s)         
13 Feb 2026 02:09:13.541    13 Feb 2026 02:12:20.136      186.59502586    
13 Feb 2026 12:56:21.635    13 Feb 2026 12:59:07.142      165.50761258    
14 Feb 2026 02:03:10.388    14 Feb 2026 02:05:50.097      159.70857537    
14 Feb 2026 12:50:25.899    14 Feb 2026 12:52:35.834      129.93513906    
15 Feb 2026 01:57:14.425    15 Feb 2026 01:59:12.206      117.78116939    
15 Feb 2026 12:44:44.192    15 Feb 2026 12:45:51.147      66.954363941    
17 Feb 2026 14:06:46.347    17 Feb 2026 14:07:55.387      69.040033955    
18 Feb 2026 03:13:18.970    18 Feb 2026 03:14:41.568      82.597760658    
18 Feb 2026 13:59:56.512    18 Feb 2026 14:02:11.059      134.54636618    
19 Feb 2026 03:06:38.648    19 Feb 2026 03:08:55.095      136.44701281    
19 Feb 2026 13:53:21.781    19 Feb 2026 13:56:12.278      170.49720185    


Number of events : 11


Observer: Tirana
Start Time (UTC)            Stop Time (UTC)               Duration (s)         
13 Feb 2026 02:10:53.120    13 Feb 2026 02:12:41.863      108.74276444    
13 Feb 2026 12:53:47.153    13 Feb 2026 12:57:21.928      214.77536266    
14 Feb 2026 02:04:16.157    14 Feb 2026 02:06:51.792      155.63544568    
14 Feb 2026 12:47:27.779    14 Feb 2026 12:51:10.464      222.68503894    
15 Feb 2026 01:57:47.715    15 Feb 2026 02:00:52.532      184.81658989    
15 Feb 2026 12:41:11.831    15 Feb 2026 12:44:56.214      224.38245228    
16 Feb 2026 01:51:23.975    16 Feb 2026 01:54:47.905      203.92943916    
16 Feb 2026 12:34:59.186    16 Feb 2026 12:38:39.301      220.11570755    
17 Feb 2026 01:45:03.642    17 Feb 2026 01:48:39.212      215.57006075    
17 Feb 2026 12:28:49.972    17 Feb 2026 12:32:19.600      209.62841688    
18 Feb 2026 01:38:46.174    18 Feb 2026 01:42:27.001      220.82688008    
18 Feb 2026 12:22:44.641    18 Feb 2026 12:25:56.661      192.01975535    
19 Feb 2026 01:32:31.391    19 Feb 2026 01:36:11.451      220.06002300    
19 Feb 2026 12:16:44.260    19 Feb 2026 12:19:29.421      165.16039936    


Number of events : 14