GMATContacts/full98.txt

Target: DefaultSC

Observer: Avilla
Start Time (UTC)            Stop Time (UTC)               Duration (s)         
13 Feb 2026 03:46:36.206    13 Feb 2026 03:48:42.139      125.93304474    
13 Feb 2026 14:29:01.026    13 Feb 2026 14:32:41.156      220.12950028    
14 Feb 2026 03:39:58.668    14 Feb 2026 03:42:47.050      168.38279029    
14 Feb 2026 14:22:39.718    14 Feb 2026 14:26:26.298      226.58089546    
15 Feb 2026 03:33:28.614    15 Feb 2026 03:36:43.759      195.14550597    
15 Feb 2026 14:16:22.107    15 Feb 2026 14:20:08.430      226.32364731    
16 Feb 2026 03:27:03.095    16 Feb 2026 03:30:35.221      212.12669529    
16 Feb 2026 14:10:08.146    16 Feb 2026 14:13:47.602      219.45561287    
17 Feb 2026 03:20:41.038    17 Feb 2026 03:24:22.515      221.47663075    
17 Feb 2026 14:03:58.105    17 Feb 2026 14:07:23.547      205.44146419    
18 Feb 2026 03:14:22.024    18 Feb 2026 03:18:06.065      224.04176344    
18 Feb 2026 13:57:52.735    18 Feb 2026 14:00:55.519      182.78439380    
19 Feb 2026 03:08:05.992    19 Feb 2026 03:11:45.936      219.94415880    
19 Feb 2026 13:51:53.916    19 Feb 2026 13:54:21.644      147.72854234    


Number of events : 14


Observer: Barcelona
Start Time (UTC)            Stop Time (UTC)               Duration (s)         
13 Feb 2026 02:12:16.614    13 Feb 2026 02:12:57.705      41.091038624    
13 Feb 2026 14:30:18.283    13 Feb 2026 14:31:25.338      67.055587680    
14 Feb 2026 14:23:21.435    14 Feb 2026 14:25:43.108      141.67302361    
15 Feb 2026 14:16:42.955    15 Feb 2026 14:19:43.199      180.24364114    
16 Feb 2026 03:27:37.971    16 Feb 2026 03:28:46.392      68.421537196    
16 Feb 2026 14:10:11.994    16 Feb 2026 14:13:36.461      204.46724397    
17 Feb 2026 03:20:47.205    17 Feb 2026 03:23:05.038      137.83339887    
17 Feb 2026 14:03:46.076    17 Feb 2026 14:07:25.364      219.28755341    
18 Feb 2026 03:14:12.127    18 Feb 2026 03:17:07.271      175.14451055    
18 Feb 2026 13:57:24.215    18 Feb 2026 14:01:10.897      226.68233357    
19 Feb 2026 03:07:43.336    19 Feb 2026 03:11:02.498      199.16143043    
19 Feb 2026 13:51:05.987    19 Feb 2026 13:54:53.485      227.49805190    


Number of events : 12


Observer: Delft
Start Time (UTC)            Stop Time (UTC)               Duration (s)         
13 Feb 2026 02:08:58.329    13 Feb 2026 02:10:28.114      89.784384635    
13 Feb 2026 12:57:29.666    13 Feb 2026 13:00:23.282      173.61613075    
14 Feb 2026 03:37:11.521    14 Feb 2026 03:38:44.015      92.494462535    
14 Feb 2026 12:51:28.612    14 Feb 2026 12:53:51.754      143.14175087    
15 Feb 2026 03:30:31.502    15 Feb 2026 03:32:51.963      140.46135026    
15 Feb 2026 12:45:36.254    15 Feb 2026 12:47:12.198      95.943638845    
16 Feb 2026 03:23:59.808    16 Feb 2026 03:26:50.906      171.09828677    
16 Feb 2026 14:13:51.638    16 Feb 2026 14:15:25.826      94.188311161    
17 Feb 2026 03:17:32.283    17 Feb 2026 03:20:45.000      192.71734762    
17 Feb 2026 14:07:05.603    17 Feb 2026 14:09:31.532      145.92887743    
18 Feb 2026 03:11:07.570    18 Feb 2026 03:14:35.600      208.02982869    
18 Feb 2026 14:00:29.915    18 Feb 2026 14:03:27.583      177.66788407    
19 Feb 2026 03:04:45.060    19 Feb 2026 03:08:23.318      218.25817041    
19 Feb 2026 13:53:59.619    19 Feb 2026 13:57:18.926      199.30735161    


Number of events : 14


Observer: Gibraltar
Start Time (UTC)            Stop Time (UTC)               Duration (s)         
13 Feb 2026 03:48:00.821    13 Feb 2026 03:49:33.392      92.570452241    
13 Feb 2026 14:27:53.907    13 Feb 2026 14:31:41.012      227.10514704    
14 Feb 2026 03:41:14.674    14 Feb 2026 03:43:47.170      152.49641750    
14 Feb 2026 14:21:37.933    14 Feb 2026 14:25:21.990      224.05680277    
15 Feb 2026 03:34:41.115    15 Feb 2026 03:37:47.654      186.53847661    
15 Feb 2026 14:15:26.122    15 Feb 2026 14:18:59.476      213.35416173    
16 Feb 2026 03:28:13.637    16 Feb 2026 03:31:41.361      207.72445479    
16 Feb 2026 14:09:19.044    16 Feb 2026 14:12:32.907      193.86278404    
17 Feb 2026 03:21:50.420    17 Feb 2026 03:25:30.119      219.69967587    
17 Feb 2026 14:03:18.196    17 Feb 2026 14:06:00.794      162.59850890    
18 Feb 2026 03:15:30.780    18 Feb 2026 03:19:14.620      223.83980944    
18 Feb 2026 13:57:28.285    18 Feb 2026 13:59:18.437      110.15244140    
19 Feb 2026 03:09:14.558    19 Feb 2026 03:12:55.030      220.47211466    


Number of events : 13


Observer: Granada
Start Time (UTC)            Stop Time (UTC)               Duration (s)         
13 Feb 2026 14:28:07.104    13 Feb 2026 14:31:41.815      214.71055839    
14 Feb 2026 03:41:42.758    14 Feb 2026 03:42:32.330      49.571382953    
14 Feb 2026 14:21:44.037    14 Feb 2026 14:25:28.690      224.65245151    
15 Feb 2026 03:34:44.304    15 Feb 2026 03:36:58.672      134.36788539    
15 Feb 2026 14:15:25.116    15 Feb 2026 14:19:12.086      226.96922222    
16 Feb 2026 03:28:07.599    16 Feb 2026 03:31:02.552      174.95244982    
16 Feb 2026 14:09:10.163    16 Feb 2026 14:12:52.186      222.02368226    
17 Feb 2026 03:21:38.219    17 Feb 2026 03:24:58.402      200.18348125    
17 Feb 2026 14:02:59.373    17 Feb 2026 14:06:28.800      209.42719462    
18 Feb 2026 03:15:13.489    18 Feb 2026 03:18:48.905      215.41600744    
18 Feb 2026 13:56:53.450    18 Feb 2026 14:00:01.230      187.78003691    
19 Feb 2026 03:08:52.438    19 Feb 2026 03:12:35.042      222.60456167    
19 Feb 2026 13:50:54.211    19 Feb 2026 13:53:27.666      153.45498954    


Number of events : 13


Observer: Lausanne
Start Time (UTC)            Stop Time (UTC)               Duration (s)         
13 Feb 2026 02:09:35.324    13 Feb 2026 02:12:40.441      185.11693245    
13 Feb 2026 12:56:04.530    13 Feb 2026 12:58:45.306      160.77658123    
14 Feb 2026 02:03:31.572    14 Feb 2026 02:06:05.263      153.69121085    
14 Feb 2026 12:50:09.836    14 Feb 2026 12:52:07.768      117.93258805    
15 Feb 2026 01:57:37.790    15 Feb 2026 01:59:19.402      101.61206515    
17 Feb 2026 14:05:55.394    17 Feb 2026 14:07:36.467      101.07311150    
18 Feb 2026 03:13:10.960    18 Feb 2026 03:14:59.527      108.56706728    
18 Feb 2026 13:59:09.238    18 Feb 2026 14:01:43.102      153.86395874    
19 Feb 2026 03:06:31.938    19 Feb 2026 03:09:06.139      154.20072642    
19 Feb 2026 13:52:33.939    19 Feb 2026 13:55:39.582      185.64306399    


Number of events : 10


Observer: Lisbon
Start Time (UTC)            Stop Time (UTC)               Duration (s)         
13 Feb 2026 03:46:41.245    13 Feb 2026 03:50:02.428      201.18318759    
13 Feb 2026 14:28:46.256    13 Feb 2026 14:32:25.318      219.06252634    
14 Feb 2026 03:40:16.620    14 Feb 2026 03:43:52.873      216.25354879    
14 Feb 2026 14:22:36.646    14 Feb 2026 14:26:00.907      204.26077601    
15 Feb 2026 03:33:55.487    15 Feb 2026 03:37:39.128      223.64134253    
15 Feb 2026 14:16:32.040    15 Feb 2026 14:19:32.188      180.14835430    
16 Feb 2026 03:27:37.525    16 Feb 2026 03:31:21.521      223.99634840    
16 Feb 2026 14:10:34.685    16 Feb 2026 14:12:56.920      142.23520593    
17 Feb 2026 03:21:22.777    17 Feb 2026 03:25:00.011      217.23388634    
17 Feb 2026 14:04:54.124    17 Feb 2026 14:06:05.566      71.441872604    
18 Feb 2026 03:15:11.669    18 Feb 2026 03:18:34.178      202.50905987    
19 Feb 2026 03:09:05.264    19 Feb 2026 03:12:02.959      177.69505747    


Number of events : 12


Observer: Messina
Start Time (UTC)            Stop Time (UTC)               Duration (s)         
13 Feb 2026 02:11:15.407    13 Feb 2026 02:14:27.990      192.58253990    
13 Feb 2026 12:53:02.981    13 Feb 2026 12:56:44.335      221.35404102    
14 Feb 2026 02:04:49.141    14 Feb 2026 02:08:20.352      211.21126260    
14 Feb 2026 12:46:52.423    14 Feb 2026 12:50:20.724      208.30094093    
15 Feb 2026 01:58:26.681    15 Feb 2026 02:02:08.209      221.52808264    
15 Feb 2026 12:40:46.655    15 Feb 2026 12:43:53.014      186.35929080    
16 Feb 2026 01:52:07.512    16 Feb 2026 01:55:52.084      224.57159548    
16 Feb 2026 12:34:47.504    16 Feb 2026 12:37:19.387      151.88324503    
17 Feb 2026 01:45:51.544    17 Feb 2026 01:49:32.071      220.52740725    
17 Feb 2026 12:29:01.435    17 Feb 2026 12:30:33.382      91.947270522    
18 Feb 2026 01:39:39.047    18 Feb 2026 01:43:07.904      208.85685190    
19 Feb 2026 01:33:30.804    19 Feb 2026 01:36:38.801      187.99695731    


Number of events : 12


Observer: Naples
Start Time (UTC)            Stop Time (UTC)               Duration (s)         
13 Feb 2026 02:10:25.324    13 Feb 2026 02:14:01.278      215.95406968    
13 Feb 2026 12:53:49.852    13 Feb 2026 12:57:30.050      220.19809118    
14 Feb 2026 02:04:03.999    14 Feb 2026 02:07:47.715      223.71657126    
14 Feb 2026 12:47:39.515    14 Feb 2026 12:51:06.227      206.71196782    
15 Feb 2026 01:57:45.599    15 Feb 2026 02:01:30.524      224.92536481    
15 Feb 2026 12:41:33.698    15 Feb 2026 12:44:38.586      184.88820110    
16 Feb 2026 01:51:30.130    16 Feb 2026 01:55:09.702      219.57267181    
16 Feb 2026 12:35:34.102    16 Feb 2026 12:38:05.428      151.32597776    
17 Feb 2026 01:45:17.910    17 Feb 2026 01:48:44.934      207.02400251    
17 Feb 2026 12:29:46.499    17 Feb 2026 12:31:20.991      94.491852564    
18 Feb 2026 01:39:09.739    18 Feb 2026 01:42:15.421      185.68134581    
19 Feb 2026 01:33:07.542    19 Feb 2026 01:35:39.238      151.69592898    


Number of events : 12


Observer: Nemea
Start Time (UTC)            Stop Time (UTC)               Duration (s)         
13 Feb 2026 12:52:53.324    13 Feb 2026 12:56:02.696      189.37147743    
14 Feb 2026 12:46:24.047    14 Feb 2026 12:49:54.862      210.81449756    
15 Feb 2026 01:59:29.230    15 Feb 2026 02:00:26.244      57.013503369    
15 Feb 2026 12:39:59.770    15 Feb 2026 12:43:42.697      222.92735588    
16 Feb 2026 01:52:33.582    16 Feb 2026 01:54:49.754      136.17175058    
16 Feb 2026 12:33:39.680    16 Feb 2026 12:37:27.016      227.33553109    
17 Feb 2026 01:45:57.398    17 Feb 2026 01:48:53.083      175.68504430    
17 Feb 2026 12:27:23.491    17 Feb 2026 12:31:08.108      224.61722426    
18 Feb 2026 01:39:28.243    18 Feb 2026 01:42:48.673      200.43033510    
18 Feb 2026 12:21:11.276    18 Feb 2026 12:24:45.903      214.62604963    
19 Feb 2026 01:33:03.602    19 Feb 2026 01:36:39.049      215.44715009    
19 Feb 2026 12:15:03.529    19 Feb 2026 12:18:19.914      196.38571091    


Number of events : 12


Observer: Nicosia
Start Time (UTC)            Stop Time (UTC)               Duration (s)         
13 Feb 2026 00:36:34.512    13 Feb 2026 00:40:19.080      224.56849030    
13 Feb 2026 11:18:19.267    13 Feb 2026 11:19:16.489      57.221985504    
14 Feb 2026 00:30:18.356    14 Feb 2026 00:33:59.572      221.21539889    
15 Feb 2026 00:24:05.995    15 Feb 2026 00:27:35.611      209.61674455    
16 Feb 2026 00:17:58.265    16 Feb 2026 00:21:06.366      188.10121614    
17 Feb 2026 00:11:57.341    17 Feb 2026 00:14:29.665      152.32409929    
17 Feb 2026 12:27:29.798    17 Feb 2026 12:28:36.119      66.320971493    
18 Feb 2026 00:06:11.549    18 Feb 2026 00:07:37.185      85.635827249    
18 Feb 2026 12:20:31.115    18 Feb 2026 12:22:56.644      145.52956356    
19 Feb 2026 12:13:52.618    19 Feb 2026 12:16:57.620      185.00166829    


Number of events : 10


Observer: Poitiers
Start Time (UTC)            Stop Time (UTC)               Duration (s)         
13 Feb 2026 03:45:28.126    13 Feb 2026 03:46:02.474      34.347818373    
13 Feb 2026 14:31:30.368    13 Feb 2026 14:33:13.093      102.72553886    
14 Feb 2026 03:38:28.654    14 Feb 2026 03:40:30.177      121.52307916    
14 Feb 2026 14:24:44.668    14 Feb 2026 14:27:19.226      154.55832984    
15 Feb 2026 03:31:52.147    15 Feb 2026 03:34:34.197      162.05017841    
15 Feb 2026 14:18:09.517    15 Feb 2026 14:21:15.515      185.99771593    
16 Feb 2026 03:25:22.226    16 Feb 2026 03:28:30.919      188.69234713    
16 Feb 2026 14:11:40.086    16 Feb 2026 14:15:06.783      206.69626119    
17 Feb 2026 03:18:56.237    17 Feb 2026 03:22:22.999      206.76266409    
17 Feb 2026 14:05:14.789    17 Feb 2026 14:08:54.613      219.82416253    
18 Feb 2026 03:12:33.166    18 Feb 2026 03:16:11.452      218.28599257    
18 Feb 2026 13:58:52.909    18 Feb 2026 14:02:39.719      226.80985878    
19 Feb 2026 03:06:12.564    19 Feb 2026 03:09:56.730      224.16549667    
19 Feb 2026 13:52:34.109    19 Feb 2026 13:56:22.436      228.32674416    


Number of events : 14


Observer: Porto
Start Time (UTC)            Stop Time (UTC)               Duration (s)         
13 Feb 2026 03:45:52.398    13 Feb 2026 03:49:21.075      208.67683691    
13 Feb 2026 14:29:25.825    13 Feb 2026 14:33:11.694      225.86922348    
14 Feb 2026 03:39:29.386    14 Feb 2026 03:43:09.566      220.18030719    
14 Feb 2026 14:23:12.485    14 Feb 2026 14:26:50.328      217.84369494    
15 Feb 2026 03:33:09.373    15 Feb 2026 03:36:54.353      224.97982193    
15 Feb 2026 14:17:03.021    15 Feb 2026 14:20:25.784      202.76280994    
16 Feb 2026 03:26:52.201    16 Feb 2026 03:30:35.596      223.39536028    
16 Feb 2026 14:10:58.252    16 Feb 2026 14:13:57.246      178.99400687    
17 Feb 2026 03:20:38.000    17 Feb 2026 03:24:13.167      215.16691970    
17 Feb 2026 14:05:00.236    17 Feb 2026 14:07:22.664      142.42722485    
18 Feb 2026 03:14:27.249    18 Feb 2026 03:17:46.591      199.34181977    
18 Feb 2026 13:59:17.087    18 Feb 2026 14:00:33.928      76.840900979    
19 Feb 2026 03:08:21.057    19 Feb 2026 03:11:14.758      173.70103493    


Number of events : 13


Observer: Rennes
Start Time (UTC)            Stop Time (UTC)               Duration (s)         
13 Feb 2026 03:44:16.747    13 Feb 2026 03:46:53.572      156.82415189    
13 Feb 2026 14:31:24.575    13 Feb 2026 14:34:07.198      162.62325794    
14 Feb 2026 03:37:46.314    14 Feb 2026 03:40:50.959      184.64539099    
14 Feb 2026 14:24:51.081    14 Feb 2026 14:28:01.829      190.74811356    
15 Feb 2026 03:31:19.872    15 Feb 2026 03:34:43.650      203.77847941    
15 Feb 2026 14:18:22.639    15 Feb 2026 14:21:52.104      209.46459258    
16 Feb 2026 03:24:56.321    16 Feb 2026 03:28:32.745      216.42420895    
16 Feb 2026 14:11:57.995    16 Feb 2026 14:15:39.277      221.28161917    
17 Feb 2026 03:18:35.166    17 Feb 2026 03:22:18.743      223.57731715    
17 Feb 2026 14:05:36.554    17 Feb 2026 14:09:23.937      227.38280031    
18 Feb 2026 03:12:16.197    18 Feb 2026 03:16:01.853      225.65539568    
18 Feb 2026 13:59:18.034    18 Feb 2026 14:03:06.366      228.33216966    
19 Feb 2026 03:05:59.396    19 Feb 2026 03:09:42.092      222.69563188    
19 Feb 2026 13:53:02.347    19 Feb 2026 13:56:46.650      224.30341586    


Number of events : 14


Observer: Strasbourg
Start Time (UTC)            Stop Time (UTC)               Duration (s)         
13 Feb 2026 02:09:17.140    13 Feb 2026 02:12:23.012      185.87124653    
13 Feb 2026 12:56:11.552    13 Feb 2026 12:59:08.692      177.13955543    
14 Feb 2026 02:03:12.825    14 Feb 2026 02:05:48.296      155.47105843    
14 Feb 2026 12:50:11.636    14 Feb 2026 12:52:35.995      144.35942840    
15 Feb 2026 01:57:17.654    15 Feb 2026 01:59:03.722      106.06716980    
15 Feb 2026 12:44:22.458    15 Feb 2026 12:45:53.260      90.802447347    
17 Feb 2026 03:19:47.602    17 Feb 2026 03:20:20.196      32.593880617    
17 Feb 2026 14:06:25.135    17 Feb 2026 14:07:40.957      75.821801950    
18 Feb 2026 03:12:47.939    18 Feb 2026 03:14:48.038      120.09923165    
18 Feb 2026 13:59:32.810    18 Feb 2026 14:01:53.399      140.58839078    
19 Feb 2026 03:06:11.473    19 Feb 2026 03:08:51.970      160.49693234    
19 Feb 2026 13:52:55.198    19 Feb 2026 13:55:51.831      176.63322834    


Number of events : 12


Observer: Tenerife
Start Time (UTC)            Stop Time (UTC)               Duration (s)         
13 Feb 2026 03:49:30.196    13 Feb 2026 03:53:12.975      222.77902354    
14 Feb 2026 03:43:15.602    14 Feb 2026 03:46:52.106      216.50379826    
15 Feb 2026 03:37:05.735    15 Feb 2026 03:40:25.930      200.19520858    
15 Feb 2026 15:49:43.457    15 Feb 2026 15:50:39.425      55.968832411    
16 Feb 2026 03:31:02.111    16 Feb 2026 03:33:52.940      170.82854341    
16 Feb 2026 15:42:40.248    16 Feb 2026 15:45:05.354      145.10608121    
17 Feb 2026 03:25:09.526    17 Feb 2026 03:27:08.346      118.82007160    
17 Feb 2026 15:36:01.253    17 Feb 2026 15:39:07.621      186.36756311    
18 Feb 2026 15:29:31.186    18 Feb 2026 15:33:01.518      210.33181152    
19 Feb 2026 15:23:07.146    19 Feb 2026 15:26:49.954      222.80816459    


Number of events : 10


Observer: Tirana
Start Time (UTC)            Stop Time (UTC)               Duration (s)         
13 Feb 2026 02:10:46.477    13 Feb 2026 02:12:53.089      126.61226870    
13 Feb 2026 12:53:41.481    13 Feb 2026 12:57:17.695      216.21366958    
14 Feb 2026 02:04:09.255    14 Feb 2026 02:06:57.698      168.44359576    
14 Feb 2026 12:47:18.650    14 Feb 2026 12:51:04.015      225.36518119    
15 Feb 2026 01:57:39.295    15 Feb 2026 02:00:54.325      195.03006485    
15 Feb 2026 12:40:59.523    15 Feb 2026 12:44:47.319      227.79558033    
16 Feb 2026 01:51:13.753    16 Feb 2026 01:54:45.819      212.06643675    
16 Feb 2026 12:34:43.933    16 Feb 2026 12:38:27.776      223.84329338    
17 Feb 2026 01:44:51.581    17 Feb 2026 01:48:33.235      221.65415726    
17 Feb 2026 12:28:31.997    17 Feb 2026 12:32:05.274      213.27642063    
18 Feb 2026 01:38:32.359    18 Feb 2026 01:42:16.997      224.63835011    
18 Feb 2026 12:22:24.187    18 Feb 2026 12:25:39.342      195.15538792    
19 Feb 2026 01:32:16.011    19 Feb 2026 01:35:57.183      221.17242141    
19 Feb 2026 12:16:21.647    19 Feb 2026 12:19:08.841      167.19366949    


Number of events : 14


