GMATContacts/full60.txt

Target: DefaultSC

Observer: Avilla
Start Time (UTC)            Stop Time (UTC)               Duration (s)         
13 Feb 2026 00:32:32.309    13 Feb 2026 00:36:14.933      222.62342001    
13 Feb 2026 16:05:19.213    13 Feb 2026 16:08:39.901      200.68846964    
14 Feb 2026 00:25:19.329    14 Feb 2026 00:29:12.797      233.46801926    
14 Feb 2026 15:57:56.094    14 Feb 2026 16:01:42.833      226.73883409    
15 Feb 2026 00:18:11.818    15 Feb 2026 00:22:03.179      231.36142865    
15 Feb 2026 15:50:42.129    15 Feb 2026 15:54:38.567      236.43767004    
16 Feb 2026 00:11:10.504    16 Feb 2026 00:14:45.392      214.88789065    
16 Feb 2026 15:43:35.830    16 Feb 2026 15:47:28.629      232.79899472    
17 Feb 2026 00:04:17.967    17 Feb 2026 00:07:16.896      178.92897693    
17 Feb 2026 15:36:37.031    17 Feb 2026 15:40:13.232      216.20093768    
17 Feb 2026 23:57:44.470    17 Feb 2026 23:59:27.471      103.00154256    
18 Feb 2026 15:29:46.853    18 Feb 2026 15:32:51.292      184.43841005    
18 Feb 2026 22:11:48.574    18 Feb 2026 22:13:44.011      115.43647751    
19 Feb 2026 15:23:09.817    19 Feb 2026 15:25:18.328      128.51105926    
19 Feb 2026 22:04:12.953    19 Feb 2026 22:07:09.868      176.91489297    


Number of events : 15


Observer: Barcelona
Start Time (UTC)            Stop Time (UTC)               Duration (s)         
13 Feb 2026 00:33:12.573    13 Feb 2026 00:36:55.581      223.00889933    
13 Feb 2026 16:06:02.078    13 Feb 2026 16:09:59.062      236.98340831    
14 Feb 2026 00:26:16.033    14 Feb 2026 00:29:31.825      195.79199682    
14 Feb 2026 15:58:55.698    14 Feb 2026 16:02:49.295      233.59624195    
15 Feb 2026 00:19:31.910    15 Feb 2026 00:21:53.748      141.83761674    
15 Feb 2026 15:51:56.448    15 Feb 2026 15:55:34.420      217.97155207    
15 Feb 2026 22:34:01.874    15 Feb 2026 22:35:38.856      96.981845156    
16 Feb 2026 15:45:05.235    16 Feb 2026 15:48:13.564      188.32924780    
16 Feb 2026 22:26:22.607    16 Feb 2026 22:29:09.072      166.46469065    
17 Feb 2026 15:38:25.612    17 Feb 2026 15:40:43.208      137.59589513    
17 Feb 2026 22:18:58.081    17 Feb 2026 22:22:22.452      204.37141084    
18 Feb 2026 13:52:53.428    18 Feb 2026 13:54:36.843      103.41462905    
18 Feb 2026 22:11:40.666    18 Feb 2026 22:15:26.655      225.98928827    
19 Feb 2026 13:45:03.926    19 Feb 2026 13:48:03.296      179.36987771    
19 Feb 2026 22:04:28.627    19 Feb 2026 22:08:23.446      234.81845671    


Number of events : 15


Observer: Delft
Start Time (UTC)            Stop Time (UTC)               Duration (s)         
13 Feb 2026 16:09:24.405    13 Feb 2026 16:11:42.315      137.91031928    
13 Feb 2026 17:47:28.894    13 Feb 2026 17:50:59.340      210.44595418    
13 Feb 2026 21:07:31.424    13 Feb 2026 21:09:12.069      100.64510229    
13 Feb 2026 22:45:32.717    13 Feb 2026 22:49:28.940      236.22301872    
14 Feb 2026 16:01:50.366    14 Feb 2026 16:04:53.668      183.30140531    
14 Feb 2026 17:40:32.266    14 Feb 2026 17:43:46.346      194.07954791    
14 Feb 2026 21:00:12.808    14 Feb 2026 21:02:25.218      132.40958626    
14 Feb 2026 22:38:26.714    14 Feb 2026 22:42:18.168      231.45393374    
15 Feb 2026 15:54:26.266    15 Feb 2026 15:57:56.735      210.46848317    
15 Feb 2026 17:33:38.000    15 Feb 2026 17:36:32.256      174.25642570    
15 Feb 2026 20:52:56.475    15 Feb 2026 20:55:35.075      158.59991172    
15 Feb 2026 22:31:23.222    15 Feb 2026 22:35:03.299      220.07695832    
16 Feb 2026 15:47:08.360    16 Feb 2026 15:50:55.240      226.88062980    
16 Feb 2026 17:26:46.140    16 Feb 2026 17:29:16.937      150.79749887    
16 Feb 2026 20:45:41.608    16 Feb 2026 20:48:42.353      180.74517797    
16 Feb 2026 22:24:23.248    16 Feb 2026 22:27:43.298      200.05050445    
17 Feb 2026 15:39:55.110    17 Feb 2026 15:43:50.696      235.58632904    
17 Feb 2026 17:19:56.985    17 Feb 2026 17:21:59.992      123.00640916    
17 Feb 2026 20:38:27.919    17 Feb 2026 20:41:47.245      199.32641111    
17 Feb 2026 22:17:28.853    17 Feb 2026 22:20:16.080      167.22735499    
18 Feb 2026 15:32:45.684    18 Feb 2026 15:36:43.903      238.21902447    
18 Feb 2026 17:13:11.610    18 Feb 2026 17:14:40.237      88.626887393    
18 Feb 2026 20:31:15.324    18 Feb 2026 20:34:49.752      214.42818276    
18 Feb 2026 22:10:46.269    18 Feb 2026 22:12:35.394      109.12467811    
19 Feb 2026 15:25:39.562    19 Feb 2026 15:29:35.346      235.78445334    
19 Feb 2026 17:06:36.453    19 Feb 2026 17:07:11.114      34.661152458    
19 Feb 2026 20:24:03.848    19 Feb 2026 20:27:49.774      225.92635358    


Number of events : 27


Observer: Gibraltar
Start Time (UTC)            Stop Time (UTC)               Duration (s)         
13 Feb 2026 00:33:57.657    13 Feb 2026 00:36:19.047      141.38993322    
13 Feb 2026 16:04:00.553    13 Feb 2026 16:07:47.344      226.79059339    
14 Feb 2026 00:26:24.832    14 Feb 2026 00:29:40.149      195.31756863    
14 Feb 2026 15:56:46.381    14 Feb 2026 16:00:43.022      236.64152033    
15 Feb 2026 00:19:03.901    15 Feb 2026 00:22:47.202      223.30078224    
15 Feb 2026 15:49:41.259    15 Feb 2026 15:53:31.652      230.39284295    
16 Feb 2026 00:11:50.654    16 Feb 2026 00:15:44.488      233.83393177    
16 Feb 2026 15:42:45.420    16 Feb 2026 15:46:13.068      207.64773523    
17 Feb 2026 00:04:44.397    17 Feb 2026 00:08:32.771      228.37357773    
17 Feb 2026 15:36:01.615    17 Feb 2026 15:38:44.593      162.97847723    
17 Feb 2026 23:57:46.326    18 Feb 2026 00:01:10.922      204.59618488    
18 Feb 2026 15:29:46.889    18 Feb 2026 15:30:49.253      62.363696890    
18 Feb 2026 23:51:01.301    18 Feb 2026 23:53:34.143      152.84139148    
19 Feb 2026 13:44:04.630    19 Feb 2026 13:44:55.089      50.458081334    


Number of events : 14


Observer: Granada
Start Time (UTC)            Stop Time (UTC)               Duration (s)         
13 Feb 2026 00:33:37.787    13 Feb 2026 00:37:01.655      203.86827851    
13 Feb 2026 16:04:28.214    13 Feb 2026 16:08:23.070      234.85645219    
14 Feb 2026 00:26:19.175    14 Feb 2026 00:30:06.055      226.88081525    
14 Feb 2026 15:57:19.874    14 Feb 2026 16:01:14.276      234.40180299    
15 Feb 2026 00:19:07.561    15 Feb 2026 00:23:01.389      233.82765100    
15 Feb 2026 15:50:20.213    15 Feb 2026 15:53:58.849      218.63516243    
16 Feb 2026 00:12:02.725    16 Feb 2026 00:15:47.939      225.21338565    
16 Feb 2026 15:43:30.602    16 Feb 2026 15:46:35.485      184.88257695    
17 Feb 2026 00:05:06.251    17 Feb 2026 00:08:24.183      197.93181843    
17 Feb 2026 15:36:57.317    17 Feb 2026 15:38:57.973      120.65650237    
17 Feb 2026 23:58:24.145    18 Feb 2026 00:00:44.173      140.02786746    
19 Feb 2026 13:43:47.454    19 Feb 2026 13:46:12.392      144.93826755    
19 Feb 2026 22:05:37.653    19 Feb 2026 22:07:35.823      118.16919409    


Number of events : 13


Observer: Lausanne
Start Time (UTC)            Stop Time (UTC)               Duration (s)         
13 Feb 2026 16:07:45.830    13 Feb 2026 16:11:41.461      235.63049182    
13 Feb 2026 22:47:02.929    13 Feb 2026 22:50:38.428      215.49882452    
14 Feb 2026 16:00:36.887    14 Feb 2026 16:04:33.994      237.10744393    
14 Feb 2026 22:39:49.324    14 Feb 2026 22:43:39.045      229.72085938    
15 Feb 2026 15:53:33.185    15 Feb 2026 15:57:23.147      229.96215258    
15 Feb 2026 22:32:39.017    15 Feb 2026 22:36:34.508      235.49080520    
16 Feb 2026 15:46:34.628    16 Feb 2026 15:50:09.012      214.38377732    
16 Feb 2026 22:25:32.173    16 Feb 2026 22:29:24.651      232.47793964    
17 Feb 2026 15:39:41.637    17 Feb 2026 15:42:51.160      189.52368912    
17 Feb 2026 22:18:29.465    17 Feb 2026 22:22:08.803      219.33721241    
18 Feb 2026 13:54:29.568    18 Feb 2026 13:56:26.949      117.38086792    
18 Feb 2026 15:32:55.669    18 Feb 2026 15:35:28.117      152.44800257    
18 Feb 2026 20:33:54.839    18 Feb 2026 20:34:33.903      39.063650079    
18 Feb 2026 22:11:32.466    18 Feb 2026 22:14:45.398      192.93163150    
19 Feb 2026 13:46:46.877    19 Feb 2026 13:49:46.649      179.77272172    
19 Feb 2026 15:26:22.409    19 Feb 2026 15:27:54.169      91.760447645    
19 Feb 2026 20:26:05.922    19 Feb 2026 20:28:16.324      130.40180602    
19 Feb 2026 22:04:45.397    19 Feb 2026 22:07:10.222      144.82507508    


Number of events : 18


Observer: Lisbon
Start Time (UTC)            Stop Time (UTC)               Duration (s)         
13 Feb 2026 00:33:02.625    13 Feb 2026 00:35:11.531      128.90544363    
13 Feb 2026 16:04:51.364    13 Feb 2026 16:07:17.343      145.97903432    
14 Feb 2026 00:25:28.612    14 Feb 2026 00:28:34.888      186.27646775    
14 Feb 2026 15:57:12.831    14 Feb 2026 16:00:33.743      200.91166610    
15 Feb 2026 00:18:06.581    15 Feb 2026 00:21:44.117      217.53675038    
15 Feb 2026 15:49:49.356    15 Feb 2026 15:53:36.991      227.63402889    
16 Feb 2026 00:10:51.706    16 Feb 2026 00:14:44.097      232.39073369    
16 Feb 2026 15:42:35.608    16 Feb 2026 15:46:32.469      236.86096191    
17 Feb 2026 00:03:42.934    17 Feb 2026 00:07:35.934      232.99992748    
17 Feb 2026 15:35:30.081    17 Feb 2026 15:39:21.736      231.65468734    
17 Feb 2026 23:56:40.741    18 Feb 2026 00:00:19.208      218.46676350    
18 Feb 2026 15:28:32.803    18 Feb 2026 15:32:04.818      212.01509046    
18 Feb 2026 23:49:47.509    18 Feb 2026 23:52:51.586      184.07644416    
19 Feb 2026 15:21:45.549    19 Feb 2026 15:24:39.992      174.44342460    
19 Feb 2026 23:43:12.678    19 Feb 2026 23:45:03.678      110.99951109    


Number of events : 15


Observer: Messina
Start Time (UTC)            Stop Time (UTC)               Duration (s)         
13 Feb 2026 14:29:10.543    13 Feb 2026 14:31:50.067      159.52472031    
13 Feb 2026 22:50:07.298    13 Feb 2026 22:53:09.775      182.47720879    
14 Feb 2026 14:21:35.555    14 Feb 2026 14:25:03.290      207.73492798    
14 Feb 2026 22:42:44.336    14 Feb 2026 22:46:20.049      215.71301096    
15 Feb 2026 14:14:14.144    15 Feb 2026 14:18:04.849      230.70488455    
15 Feb 2026 22:35:28.900    15 Feb 2026 22:39:20.693      231.79241574    
16 Feb 2026 14:07:02.127    16 Feb 2026 14:10:58.978      236.85158853    
16 Feb 2026 22:28:19.731    16 Feb 2026 22:32:13.026      233.29450444    
17 Feb 2026 13:59:58.363    17 Feb 2026 14:03:46.873      228.50999194    
17 Feb 2026 22:21:17.211    17 Feb 2026 22:24:56.720      219.50842955    
18 Feb 2026 13:53:03.213    18 Feb 2026 13:56:28.229      205.01533557    
18 Feb 2026 22:14:23.628    18 Feb 2026 22:17:29.541      185.91344040    
19 Feb 2026 13:46:19.248    19 Feb 2026 13:49:00.532      161.28359826    
19 Feb 2026 22:07:47.969    19 Feb 2026 22:09:42.551      114.58140300    


Number of events : 14


Observer: Naples
Start Time (UTC)            Stop Time (UTC)               Duration (s)         
13 Feb 2026 16:08:52.861    13 Feb 2026 16:10:31.016      98.154348414    
13 Feb 2026 22:49:09.430    13 Feb 2026 22:52:38.580      209.15004993    
14 Feb 2026 14:22:38.136    14 Feb 2026 14:25:00.830      142.69396362    
14 Feb 2026 22:41:52.983    14 Feb 2026 22:45:41.380      228.39661371    
15 Feb 2026 14:14:59.594    15 Feb 2026 14:18:17.104      197.51090440    
15 Feb 2026 22:34:41.909    15 Feb 2026 22:38:36.775      234.86660257    
16 Feb 2026 14:07:35.572    16 Feb 2026 14:11:20.766      225.19463010    
16 Feb 2026 22:27:36.182    16 Feb 2026 22:31:24.827      228.64516899    
17 Feb 2026 14:00:20.741    17 Feb 2026 14:04:17.181      236.43950127    
17 Feb 2026 22:20:36.922    17 Feb 2026 22:24:04.456      207.53414106    
18 Feb 2026 13:53:13.458    18 Feb 2026 13:57:08.032      234.57476806    
18 Feb 2026 22:13:47.601    18 Feb 2026 22:16:32.228      164.62714216    
19 Feb 2026 13:46:13.390    19 Feb 2026 13:49:53.688      220.29767102    
19 Feb 2026 20:28:59.014    19 Feb 2026 20:29:30.517      31.502454041    
19 Feb 2026 22:07:26.813    19 Feb 2026 22:08:29.582      62.768460461    


Number of events : 15


Observer: Nemea
Start Time (UTC)            Stop Time (UTC)               Duration (s)         
13 Feb 2026 14:29:20.507    13 Feb 2026 14:33:17.035      236.52820308    
13 Feb 2026 22:50:48.094    13 Feb 2026 22:54:42.048      233.95393275    
14 Feb 2026 14:22:14.761    14 Feb 2026 14:26:06.368      231.60737978    
14 Feb 2026 22:43:42.042    14 Feb 2026 22:47:30.253      228.21063573    
15 Feb 2026 14:15:17.564    15 Feb 2026 14:18:49.215      211.65033277    
15 Feb 2026 22:36:43.590    15 Feb 2026 22:40:08.897      205.30749194    
16 Feb 2026 14:08:30.861    16 Feb 2026 14:11:23.691      172.83001113    
16 Feb 2026 22:29:57.103    16 Feb 2026 22:32:33.668      156.56417197    
17 Feb 2026 14:02:03.902    17 Feb 2026 14:03:40.604      96.702757326    
18 Feb 2026 12:16:31.048    18 Feb 2026 12:17:36.604      65.555793210    
18 Feb 2026 20:37:21.688    18 Feb 2026 20:39:11.344      109.65642845    
19 Feb 2026 12:08:27.207    19 Feb 2026 12:11:17.147      169.94011971    
19 Feb 2026 20:29:42.394    19 Feb 2026 20:32:40.254      177.86017174    


Number of events : 13


Observer: Nicosia
Start Time (UTC)            Stop Time (UTC)               Duration (s)         
13 Feb 2026 22:53:28.317    13 Feb 2026 22:56:01.827      153.50916723    
14 Feb 2026 12:45:09.703    14 Feb 2026 12:47:31.128      141.42576774    
15 Feb 2026 12:37:28.759    15 Feb 2026 12:40:49.980      201.22071819    
15 Feb 2026 21:01:23.504    15 Feb 2026 21:02:09.263      45.758313022    
16 Feb 2026 12:30:04.898    16 Feb 2026 12:33:53.606      228.70886873    
16 Feb 2026 20:53:21.311    16 Feb 2026 20:56:01.055      159.74311017    
17 Feb 2026 12:22:51.893    17 Feb 2026 12:26:48.299      236.40644001    
17 Feb 2026 20:45:51.945    17 Feb 2026 20:49:17.809      205.86408813    
18 Feb 2026 12:15:48.296    18 Feb 2026 12:19:35.580      227.28397610    
18 Feb 2026 20:38:33.244    18 Feb 2026 20:42:21.767      228.52297782    
19 Feb 2026 12:08:54.755    19 Feb 2026 12:12:14.877      200.12199841    
19 Feb 2026 20:31:22.266    19 Feb 2026 20:35:15.950      233.68416235    


Number of events : 12


Observer: Poitiers
Start Time (UTC)            Stop Time (UTC)               Duration (s)         
13 Feb 2026 00:32:11.462    13 Feb 2026 00:35:10.784      179.32185192    
13 Feb 2026 16:07:28.629    13 Feb 2026 16:10:30.046      181.41633488    
13 Feb 2026 17:46:59.609    13 Feb 2026 17:48:42.067      102.45819753    
13 Feb 2026 22:46:28.937    13 Feb 2026 22:49:03.060      154.12285865    
14 Feb 2026 00:25:30.128    14 Feb 2026 00:27:29.234      119.10658653    
14 Feb 2026 16:00:01.984    14 Feb 2026 16:03:35.590      213.60571752    
14 Feb 2026 22:39:06.710    14 Feb 2026 22:42:16.240      189.53073149    
15 Feb 2026 15:52:43.679    15 Feb 2026 15:56:34.632      230.95249718    
15 Feb 2026 22:31:49.307    15 Feb 2026 22:35:22.795      213.48841090    
16 Feb 2026 15:45:31.635    16 Feb 2026 15:49:29.256      237.62141626    
16 Feb 2026 22:24:35.430    16 Feb 2026 22:28:24.002      228.57268428    
17 Feb 2026 15:38:24.941    17 Feb 2026 15:42:20.375      235.43483588    
17 Feb 2026 22:17:24.708    17 Feb 2026 22:21:20.220      235.51232270    
18 Feb 2026 15:31:23.235    18 Feb 2026 15:35:08.348      225.11312657    
18 Feb 2026 22:10:17.252    18 Feb 2026 22:14:11.330      234.07871645    
19 Feb 2026 15:24:26.574    19 Feb 2026 15:27:53.110      206.53537234    
19 Feb 2026 22:03:13.626    19 Feb 2026 22:06:56.769      223.14306772    


Number of events : 17


Observer: Porto
Start Time (UTC)            Stop Time (UTC)               Duration (s)         
13 Feb 2026 00:31:55.591    13 Feb 2026 00:35:16.775      201.18382378    
13 Feb 2026 16:06:14.894    13 Feb 2026 16:07:19.969      65.075059107    
13 Feb 2026 17:44:55.307    13 Feb 2026 17:46:05.818      70.511560561    
14 Feb 2026 00:24:37.640    14 Feb 2026 00:28:21.748      224.10719069    
14 Feb 2026 15:58:12.821    14 Feb 2026 16:00:58.511      165.69012674    
15 Feb 2026 00:17:25.081    15 Feb 2026 00:21:19.296      234.21524728    
15 Feb 2026 15:50:40.464    15 Feb 2026 15:54:09.223      208.75928623    
16 Feb 2026 00:10:17.592    16 Feb 2026 00:14:09.777      232.18501853    
16 Feb 2026 15:43:19.818    16 Feb 2026 15:47:10.144      230.32631997    
17 Feb 2026 00:03:15.876    17 Feb 2026 00:06:52.522      216.64631974    
17 Feb 2026 15:36:07.459    17 Feb 2026 15:40:04.733      237.27395599    
17 Feb 2026 23:56:22.240    17 Feb 2026 23:59:25.260      183.02065346    
18 Feb 2026 15:29:02.263    18 Feb 2026 15:32:54.150      231.88634471    
18 Feb 2026 23:49:44.996    18 Feb 2026 23:51:39.712      114.71645149    
19 Feb 2026 15:22:04.178    19 Feb 2026 15:25:38.481      214.30278928    
19 Feb 2026 22:03:48.304    19 Feb 2026 22:05:56.268      127.96458799    


Number of events : 16


Observer: Rennes
Start Time (UTC)            Stop Time (UTC)               Duration (s)         
13 Feb 2026 00:31:33.610    13 Feb 2026 00:34:43.398      189.78839738    
13 Feb 2026 16:08:15.661    13 Feb 2026 16:09:45.999      90.338535723    
13 Feb 2026 17:46:08.634    13 Feb 2026 17:49:13.658      185.02416270    
13 Feb 2026 22:45:51.201    13 Feb 2026 22:48:33.301      162.09977990    
14 Feb 2026 00:24:46.193    14 Feb 2026 00:27:08.450      142.25723860    
14 Feb 2026 16:00:26.329    14 Feb 2026 16:03:11.791      165.46228555    
14 Feb 2026 17:39:21.654    14 Feb 2026 17:41:52.234      150.57991776    
14 Feb 2026 22:38:31.363    14 Feb 2026 22:41:44.134      192.77055940    
15 Feb 2026 15:52:56.428    15 Feb 2026 15:56:19.952      203.52387062    
15 Feb 2026 17:32:44.442    15 Feb 2026 17:34:22.686      98.244600766    
15 Feb 2026 22:31:15.212    15 Feb 2026 22:34:49.578      214.36630200    
16 Feb 2026 15:45:35.645    16 Feb 2026 15:49:20.792      225.14731813    
16 Feb 2026 22:24:01.941    16 Feb 2026 22:27:50.406      228.46431287    
17 Feb 2026 15:38:21.257    17 Feb 2026 15:42:17.033      235.77622944    
17 Feb 2026 22:16:51.341    17 Feb 2026 22:20:46.803      235.46163146    
18 Feb 2026 15:31:12.085    18 Feb 2026 15:35:09.852      237.76647588    
18 Feb 2026 22:09:43.550    18 Feb 2026 22:13:38.615      235.06476145    
19 Feb 2026 15:24:07.555    19 Feb 2026 15:27:59.811      232.25582225    
19 Feb 2026 22:02:39.050    19 Feb 2026 22:06:25.348      226.29807255    


Number of events : 19


Observer: Strasbourg
Start Time (UTC)            Stop Time (UTC)               Duration (s)         
13 Feb 2026 16:08:02.877    13 Feb 2026 16:11:55.397      232.52019103    
13 Feb 2026 22:46:47.714    13 Feb 2026 22:50:35.057      227.34356011    
14 Feb 2026 16:00:51.647    14 Feb 2026 16:04:49.506      237.85934370    
14 Feb 2026 22:39:36.785    14 Feb 2026 22:43:31.817      235.03155182    
15 Feb 2026 15:53:45.448    15 Feb 2026 15:57:40.397      234.94895351    
15 Feb 2026 22:32:28.851    15 Feb 2026 22:36:23.775      234.92470550    
16 Feb 2026 15:46:43.951    16 Feb 2026 15:50:28.392      224.44074224    
16 Feb 2026 22:25:24.387    16 Feb 2026 22:29:10.450      226.06327260    
17 Feb 2026 15:39:47.185    17 Feb 2026 15:43:13.447      206.26166946    
17 Feb 2026 20:40:45.577    17 Feb 2026 20:41:35.439      49.861860531    
17 Feb 2026 22:18:24.459    17 Feb 2026 22:21:50.774      206.31565761    
18 Feb 2026 13:55:02.304    18 Feb 2026 13:56:27.437      85.132624826    
18 Feb 2026 15:32:55.660    18 Feb 2026 15:35:55.029      179.36917363    
18 Feb 2026 20:33:02.792    18 Feb 2026 20:35:12.022      129.23027370    
18 Feb 2026 22:11:31.519    18 Feb 2026 22:14:22.296      170.77782137    
19 Feb 2026 13:47:10.950    19 Feb 2026 13:49:55.209      164.25874243    
19 Feb 2026 15:26:10.999    19 Feb 2026 15:28:31.481      140.48202349    
19 Feb 2026 20:25:37.702    19 Feb 2026 20:28:29.231      171.52891617    
19 Feb 2026 22:04:54.060    19 Feb 2026 22:06:36.526      102.46614860    


Number of events : 19


Observer: Tenerife
Start Time (UTC)            Stop Time (UTC)               Duration (s)         
13 Feb 2026 02:12:20.144    13 Feb 2026 02:16:08.684      228.53996343    
13 Feb 2026 16:01:40.889    13 Feb 2026 16:03:55.407      134.51771265    
14 Feb 2026 02:05:10.521    14 Feb 2026 02:09:00.285      229.76402545    
14 Feb 2026 15:53:56.477    14 Feb 2026 15:57:17.868      201.39072267    
15 Feb 2026 01:58:11.153    15 Feb 2026 02:01:39.847      208.69341139    
15 Feb 2026 15:46:32.284    15 Feb 2026 15:50:21.779      229.49509743    
16 Feb 2026 01:51:27.099    16 Feb 2026 01:54:02.409      155.30972010    
16 Feb 2026 15:39:20.695    16 Feb 2026 15:43:14.849      234.15334452    
17 Feb 2026 15:32:20.569    17 Feb 2026 15:35:58.321      217.75168207    
18 Feb 2026 15:25:34.364    18 Feb 2026 15:28:29.851      175.48756435    
18 Feb 2026 23:51:54.105    18 Feb 2026 23:53:28.254      94.148814480    
19 Feb 2026 15:19:19.318    19 Feb 2026 15:20:32.318      72.999679483    
19 Feb 2026 23:44:04.067    19 Feb 2026 23:47:05.341      181.27351605    


Number of events : 13


Observer: Tirana
Start Time (UTC)            Stop Time (UTC)               Duration (s)         
13 Feb 2026 14:30:06.818    13 Feb 2026 14:33:18.353      191.53492218    
13 Feb 2026 22:49:38.125    13 Feb 2026 22:53:32.935      234.81063388    
14 Feb 2026 14:22:41.203    14 Feb 2026 14:26:23.325      222.12155565    
14 Feb 2026 22:42:32.719    14 Feb 2026 22:46:20.585      227.86597355    
15 Feb 2026 14:15:25.118    15 Feb 2026 14:19:20.704      235.58537350    
15 Feb 2026 22:35:33.776    15 Feb 2026 22:38:59.819      206.04231401    
16 Feb 2026 14:08:16.632    16 Feb 2026 14:12:12.457      235.82462738    
16 Feb 2026 22:28:44.910    16 Feb 2026 22:31:27.061      162.15061981    
17 Feb 2026 14:01:15.237    17 Feb 2026 14:04:59.129      223.89186295    
17 Feb 2026 20:43:42.426    17 Feb 2026 20:44:39.975      57.548949821    
17 Feb 2026 22:22:26.808    17 Feb 2026 22:23:21.656      54.848489212    
18 Feb 2026 13:54:21.456    18 Feb 2026 13:57:40.230      198.77398188    
18 Feb 2026 20:35:51.537    18 Feb 2026 20:38:22.457      150.91935497    
19 Feb 2026 13:47:37.676    19 Feb 2026 13:50:13.410      155.73383298    
19 Feb 2026 20:28:24.086    19 Feb 2026 20:31:39.398      195.31192656    


Number of events : 15


