GMATContacts/full50.txt

Target: DefaultSC

Observer: Avilla
Start Time (UTC)            Stop Time (UTC)               Duration (s)         
13 Feb 2026 00:33:06.307    13 Feb 2026 00:35:36.249      149.94189630    
13 Feb 2026 17:43:44.832    13 Feb 2026 17:47:39.570      234.73768114    
13 Feb 2026 22:45:19.282    13 Feb 2026 22:48:45.903      206.62114309    
14 Feb 2026 17:36:13.240    14 Feb 2026 17:39:53.852      220.61244061    
14 Feb 2026 22:37:31.549    14 Feb 2026 22:41:17.771      226.22258764    
15 Feb 2026 15:49:58.006    15 Feb 2026 15:51:38.794      100.78730662    
15 Feb 2026 17:28:47.738    15 Feb 2026 17:32:04.542      196.80351316    
15 Feb 2026 22:29:47.481    15 Feb 2026 22:33:43.448      235.96696216    
16 Feb 2026 15:41:32.645    16 Feb 2026 15:44:35.050      182.40488941    
16 Feb 2026 17:21:28.765    16 Feb 2026 17:24:11.105      162.33957064    
16 Feb 2026 22:22:07.575    16 Feb 2026 22:26:02.392      234.81654123    
17 Feb 2026 15:33:30.973    17 Feb 2026 15:37:10.179      219.20515375    
17 Feb 2026 17:14:18.764    17 Feb 2026 17:16:10.962      112.19793549    
17 Feb 2026 20:35:36.837    17 Feb 2026 20:37:19.357      102.51912621    
17 Feb 2026 22:14:33.098    17 Feb 2026 22:18:13.314      220.21648684    
18 Feb 2026 15:25:40.766    18 Feb 2026 15:29:36.432      235.66677331    
18 Feb 2026 20:27:35.108    18 Feb 2026 20:30:11.240      156.13117449    
18 Feb 2026 22:07:06.993    18 Feb 2026 22:10:13.278      186.28528824    
19 Feb 2026 15:17:58.774    19 Feb 2026 15:21:57.066      238.29159436    
19 Feb 2026 20:19:40.974    19 Feb 2026 20:22:53.283      192.30924093    
19 Feb 2026 21:59:59.398    19 Feb 2026 22:01:52.167      112.76837282    


Number of events : 21


Observer: Barcelona
Start Time (UTC)            Stop Time (UTC)               Duration (s)         
13 Feb 2026 17:45:13.625    13 Feb 2026 17:48:51.162      217.53708859    
13 Feb 2026 22:46:08.775    13 Feb 2026 22:50:05.734      236.95956012    
14 Feb 2026 15:58:31.370    14 Feb 2026 16:00:57.915      146.54505230    
14 Feb 2026 17:37:48.118    14 Feb 2026 17:41:02.459      194.34100357    
14 Feb 2026 20:59:43.059    14 Feb 2026 21:01:09.260      86.201233871    
14 Feb 2026 22:38:30.086    14 Feb 2026 22:42:22.930      232.84459992    
15 Feb 2026 15:50:20.129    15 Feb 2026 15:53:41.103      200.97364651    
15 Feb 2026 17:30:27.939    15 Feb 2026 17:33:10.653      162.71424297    
15 Feb 2026 20:51:41.884    15 Feb 2026 20:54:01.585      139.70096349    
15 Feb 2026 22:30:56.770    15 Feb 2026 22:34:32.220      215.44987400    
16 Feb 2026 15:42:24.015    16 Feb 2026 15:46:11.705      227.68992152    
16 Feb 2026 17:23:14.285    16 Feb 2026 17:25:14.379      120.09446654    
16 Feb 2026 20:43:47.808    16 Feb 2026 20:46:44.864      177.05545498    
16 Feb 2026 22:23:32.147    16 Feb 2026 22:26:30.277      178.12990443    
17 Feb 2026 15:34:37.151    17 Feb 2026 15:38:35.598      238.44785326    
17 Feb 2026 17:16:15.144    17 Feb 2026 17:17:05.443      50.299494574    
17 Feb 2026 20:35:57.426    17 Feb 2026 20:39:22.314      204.88788800    
17 Feb 2026 22:16:28.897    17 Feb 2026 22:18:04.432      95.535400766    
18 Feb 2026 15:26:57.342    18 Feb 2026 15:30:54.962      237.62028753    
18 Feb 2026 20:28:09.997    18 Feb 2026 20:31:54.526      224.52860606    
19 Feb 2026 15:19:23.489    19 Feb 2026 15:23:10.852      227.36346954    
19 Feb 2026 20:20:25.526    19 Feb 2026 20:24:21.386      235.86042073    


Number of events : 22


Observer: Delft
Start Time (UTC)            Stop Time (UTC)               Duration (s)         
13 Feb 2026 17:47:35.707    13 Feb 2026 17:49:55.991      140.28396299    
13 Feb 2026 19:26:16.458    13 Feb 2026 19:30:05.890      229.43175822    
13 Feb 2026 21:05:58.878    13 Feb 2026 21:09:28.828      209.94942323    
14 Feb 2026 17:39:34.305    14 Feb 2026 17:42:28.428      174.12271622    
14 Feb 2026 19:18:34.389    14 Feb 2026 19:22:25.140      230.75108727    
14 Feb 2026 20:58:22.500    14 Feb 2026 21:01:39.221      196.72141807    
15 Feb 2026 17:31:39.841    15 Feb 2026 17:34:55.371      195.53033622    
15 Feb 2026 19:10:52.978    15 Feb 2026 19:14:43.867      230.88891876    
15 Feb 2026 20:50:48.920    15 Feb 2026 20:53:45.562      176.64192372    
16 Feb 2026 17:23:49.665    16 Feb 2026 17:27:19.310      209.64560334    
16 Feb 2026 19:03:12.101    16 Feb 2026 19:07:01.964      229.86242375    
16 Feb 2026 20:43:20.344    16 Feb 2026 20:45:45.480      145.13639279    
17 Feb 2026 17:16:02.436    17 Feb 2026 17:19:41.407      218.97100790    
17 Feb 2026 18:55:31.750    17 Feb 2026 18:59:19.213      227.46331561    
17 Feb 2026 20:36:03.897    17 Feb 2026 20:37:31.703      87.806364661    
18 Feb 2026 17:08:17.311    18 Feb 2026 17:12:02.316      225.00500190    
18 Feb 2026 18:47:52.034    18 Feb 2026 18:51:35.279      223.24467871    
19 Feb 2026 15:22:09.491    19 Feb 2026 15:23:59.936      110.44574096    
19 Feb 2026 17:00:33.695    19 Feb 2026 17:04:22.422      228.72674450    
19 Feb 2026 18:40:13.210    19 Feb 2026 18:43:49.692      216.48249388    


Number of events : 20


Observer: Gibraltar
Start Time (UTC)            Stop Time (UTC)               Duration (s)         
13 Feb 2026 00:33:04.744    13 Feb 2026 00:36:52.936      228.19197541    
13 Feb 2026 17:43:19.960    13 Feb 2026 17:46:25.140      185.17955029    
14 Feb 2026 00:25:36.409    14 Feb 2026 00:28:56.042      199.63352038    
14 Feb 2026 15:56:29.639    14 Feb 2026 15:58:38.323      128.68314644    
14 Feb 2026 17:36:13.672    14 Feb 2026 17:38:18.802      125.13055620    
14 Feb 2026 22:38:52.537    14 Feb 2026 22:40:46.576      114.03868126    
15 Feb 2026 00:18:25.769    15 Feb 2026 00:20:38.811      133.04211935    
15 Feb 2026 15:48:10.175    15 Feb 2026 15:51:29.545      199.36971045    
15 Feb 2026 22:30:43.992    15 Feb 2026 22:33:42.811      178.81909206    
16 Feb 2026 15:40:12.094    16 Feb 2026 15:44:02.026      229.93208240    
16 Feb 2026 22:22:48.311    16 Feb 2026 22:26:23.287      214.97656982    
17 Feb 2026 15:32:26.237    17 Feb 2026 15:36:25.015      238.77795890    
17 Feb 2026 22:15:00.007    17 Feb 2026 22:18:53.501      233.49353619    
18 Feb 2026 15:24:50.166    18 Feb 2026 15:28:41.026      230.85935275    
18 Feb 2026 22:07:18.253    18 Feb 2026 22:11:14.321      236.06810072    
19 Feb 2026 15:17:23.497    19 Feb 2026 15:20:50.500      207.00340440    
19 Feb 2026 21:59:44.071    19 Feb 2026 22:03:24.787      220.71577879    


Number of events : 17


Observer: Granada
Start Time (UTC)            Stop Time (UTC)               Duration (s)         
13 Feb 2026 00:33:35.460    13 Feb 2026 00:36:53.540      198.08057385    
13 Feb 2026 17:44:03.024    13 Feb 2026 17:46:57.805      174.78169411    
13 Feb 2026 22:46:41.964    13 Feb 2026 22:48:54.560      132.59566231    
14 Feb 2026 00:26:24.473    14 Feb 2026 00:28:36.608      132.13485964    
14 Feb 2026 15:56:46.780    14 Feb 2026 15:59:31.209      164.42830435    
14 Feb 2026 17:36:59.345    14 Feb 2026 17:38:49.731      110.38560405    
14 Feb 2026 22:38:38.747    14 Feb 2026 22:41:45.191      186.44385645    
15 Feb 2026 15:48:38.467    15 Feb 2026 15:52:12.296      213.82883823    
15 Feb 2026 22:30:45.222    15 Feb 2026 22:34:23.315      218.09314321    
16 Feb 2026 15:40:45.634    16 Feb 2026 15:44:40.573      234.93849164    
16 Feb 2026 22:22:58.098    16 Feb 2026 22:26:52.215      234.11736572    
17 Feb 2026 15:33:03.296    17 Feb 2026 15:37:01.096      237.79994954    
17 Feb 2026 22:15:17.009    17 Feb 2026 22:19:12.281      235.27230030    
18 Feb 2026 15:25:29.889    18 Feb 2026 15:29:15.483      225.59403637    
18 Feb 2026 22:07:43.128    18 Feb 2026 22:11:22.385      219.25745902    
19 Feb 2026 15:18:05.380    19 Feb 2026 15:21:23.795      198.41535031    
19 Feb 2026 20:21:20.866    19 Feb 2026 20:22:42.765      81.898888468    
19 Feb 2026 22:00:20.254    19 Feb 2026 22:03:18.797      178.54312921    


Number of events : 18


Observer: Lausanne
Start Time (UTC)            Stop Time (UTC)               Duration (s)         
13 Feb 2026 17:46:34.189    13 Feb 2026 17:50:33.628      239.43944760    
13 Feb 2026 19:26:49.454    13 Feb 2026 19:30:15.873      206.41916364    
13 Feb 2026 21:06:39.941    13 Feb 2026 21:10:33.158      233.21650873    
13 Feb 2026 22:47:07.515    13 Feb 2026 22:49:12.985      125.47035771    
14 Feb 2026 17:38:55.396    14 Feb 2026 17:42:53.287      237.89041060    
14 Feb 2026 19:19:13.639    14 Feb 2026 19:22:39.062      205.42356359    
14 Feb 2026 20:58:58.988    14 Feb 2026 21:02:56.328      237.34027339    
15 Feb 2026 15:52:27.598    15 Feb 2026 15:54:53.029      145.43136611    
15 Feb 2026 17:31:18.938    15 Feb 2026 17:35:12.241      233.30255295    
15 Feb 2026 19:11:36.450    15 Feb 2026 19:15:03.594      207.14437250    
15 Feb 2026 20:51:18.884    15 Feb 2026 20:55:16.980      238.09592271    
16 Feb 2026 15:44:20.074    16 Feb 2026 15:47:32.184      192.10931839    
16 Feb 2026 17:23:44.070    16 Feb 2026 17:27:31.040      226.96970282    
16 Feb 2026 19:03:57.874    16 Feb 2026 19:07:29.192      211.31786563    
16 Feb 2026 20:43:40.325    16 Feb 2026 20:47:34.254      233.92889926    
17 Feb 2026 15:36:24.007    17 Feb 2026 15:40:02.076      218.06960462    
17 Feb 2026 17:16:10.085    17 Feb 2026 17:19:50.170      220.08406576    
17 Feb 2026 18:56:18.091    17 Feb 2026 18:59:55.396      217.30506818    
17 Feb 2026 20:36:04.265    17 Feb 2026 20:39:47.061      222.79529847    
18 Feb 2026 15:28:34.870    18 Feb 2026 15:32:27.155      232.28526316    
18 Feb 2026 17:08:36.309    18 Feb 2026 17:12:10.060      213.75115025    
18 Feb 2026 18:48:37.417    18 Feb 2026 18:52:21.616      224.19863023    
18 Feb 2026 20:28:32.239    18 Feb 2026 20:31:53.752      201.51358304    
19 Feb 2026 15:20:50.669    19 Feb 2026 15:24:49.311      238.64193853    
19 Feb 2026 17:01:02.122    19 Feb 2026 17:04:31.064      208.94267389    
19 Feb 2026 18:40:56.262    19 Feb 2026 18:44:47.192      230.92998359    
19 Feb 2026 20:21:07.421    19 Feb 2026 20:23:51.066      163.64432399    


Number of events : 27


Observer: Lisbon
Start Time (UTC)            Stop Time (UTC)               Duration (s)         
13 Feb 2026 00:32:04.230    13 Feb 2026 00:35:51.539      227.30869905    
13 Feb 2026 17:42:39.843    13 Feb 2026 17:46:36.896      237.05366511    
13 Feb 2026 22:45:40.179    13 Feb 2026 22:47:08.765      88.585737697    
14 Feb 2026 00:24:35.241    14 Feb 2026 00:27:55.314      200.07309095    
14 Feb 2026 17:35:07.463    14 Feb 2026 17:38:51.064      223.60098555    
14 Feb 2026 22:37:30.623    14 Feb 2026 22:40:07.924      157.30139137    
15 Feb 2026 00:17:21.228    15 Feb 2026 00:19:41.493      140.26505090    
15 Feb 2026 17:27:42.717    15 Feb 2026 17:31:00.303      197.58612748    
15 Feb 2026 22:29:33.916    15 Feb 2026 22:32:51.655      197.73904922    
16 Feb 2026 15:40:46.965    16 Feb 2026 15:43:17.224      150.25947781    
16 Feb 2026 17:20:26.883    16 Feb 2026 17:23:03.286      156.40373103    
16 Feb 2026 22:21:43.423    16 Feb 2026 22:25:26.515      223.09272381    
17 Feb 2026 15:32:35.247    17 Feb 2026 15:36:01.157      205.90990299    
17 Feb 2026 17:13:26.895    17 Feb 2026 17:14:53.001      86.105696834    
17 Feb 2026 22:13:57.887    17 Feb 2026 22:17:53.719      235.83202211    
18 Feb 2026 15:24:39.924    18 Feb 2026 15:28:31.328      231.40422507    
18 Feb 2026 22:06:17.466    18 Feb 2026 22:10:13.101      235.63444095    
19 Feb 2026 15:16:54.912    19 Feb 2026 15:20:53.864      238.95264143    
19 Feb 2026 21:58:43.423    19 Feb 2026 22:02:23.413      219.98974577    


Number of events : 19


Observer: Messina
Start Time (UTC)            Stop Time (UTC)               Duration (s)         
13 Feb 2026 16:07:12.106    13 Feb 2026 16:11:06.966      234.86000873    
13 Feb 2026 21:10:34.632    13 Feb 2026 21:11:30.025      55.393334187    
13 Feb 2026 22:49:12.239    13 Feb 2026 22:52:36.570      204.33136818    
14 Feb 2026 15:59:41.743    14 Feb 2026 16:03:19.692      217.94925128    
14 Feb 2026 21:02:14.806    14 Feb 2026 21:04:39.931      145.12451962    
14 Feb 2026 22:41:56.232    14 Feb 2026 22:44:25.046      148.81477696    
15 Feb 2026 15:52:19.542    15 Feb 2026 15:55:26.983      187.44118747    
15 Feb 2026 20:54:15.576    15 Feb 2026 20:57:26.625      191.04951663    
16 Feb 2026 14:05:10.189    16 Feb 2026 14:07:54.451      164.26189444    
16 Feb 2026 15:45:07.846    16 Feb 2026 15:47:26.456      138.60953911    
16 Feb 2026 20:46:23.694    16 Feb 2026 20:50:03.280      219.58625772    
17 Feb 2026 13:57:02.305    17 Feb 2026 14:00:35.056      212.75040036    
17 Feb 2026 15:38:27.273    17 Feb 2026 15:38:57.409      30.136318132    
17 Feb 2026 20:38:37.180    17 Feb 2026 20:42:31.839      234.65895527    
18 Feb 2026 13:49:09.228    18 Feb 2026 13:53:03.499      234.27152967    
18 Feb 2026 20:30:55.936    18 Feb 2026 20:34:52.393      236.45720794    
19 Feb 2026 13:41:26.102    19 Feb 2026 13:45:24.688      238.58659943    
19 Feb 2026 20:23:21.046    19 Feb 2026 20:27:03.881      222.83500889    


Number of events : 18


Observer: Naples
Start Time (UTC)            Stop Time (UTC)               Duration (s)         
13 Feb 2026 16:07:26.789    13 Feb 2026 16:11:21.011      234.22119361    
13 Feb 2026 17:48:44.450    13 Feb 2026 17:50:03.670      79.220011365    
13 Feb 2026 21:08:59.801    13 Feb 2026 21:11:57.805      178.00401557    
13 Feb 2026 22:48:48.898    13 Feb 2026 22:51:35.815      166.91687338    
14 Feb 2026 15:59:43.338    14 Feb 2026 16:03:42.631      239.29291129    
14 Feb 2026 21:01:09.117    14 Feb 2026 21:04:35.323      206.20627723    
14 Feb 2026 22:41:58.338    14 Feb 2026 22:42:56.856      58.517940051    
15 Feb 2026 15:52:06.530    15 Feb 2026 15:56:00.143      233.61281517    
15 Feb 2026 20:53:21.681    15 Feb 2026 20:57:07.250      225.56858074    
16 Feb 2026 15:44:35.561    16 Feb 2026 15:48:14.298      218.73662537    
16 Feb 2026 20:45:37.456    16 Feb 2026 20:49:33.524      236.06780022    
17 Feb 2026 13:58:01.089    17 Feb 2026 14:00:15.007      133.91767881    
17 Feb 2026 15:37:10.104    17 Feb 2026 15:40:25.342      195.23737330    
17 Feb 2026 20:37:56.918    17 Feb 2026 20:41:53.599      236.68075581    
18 Feb 2026 13:49:46.130    18 Feb 2026 13:53:01.567      195.43717545    
18 Feb 2026 15:29:50.383    18 Feb 2026 15:32:32.935      162.55257303    
18 Feb 2026 18:51:21.453    18 Feb 2026 18:53:13.464      112.01147722    
18 Feb 2026 20:30:21.161    18 Feb 2026 20:34:06.348      225.18739253    
19 Feb 2026 13:41:48.336    19 Feb 2026 13:45:33.511      225.17476121    
19 Feb 2026 15:22:37.992    19 Feb 2026 15:24:35.326      117.33382313    
19 Feb 2026 18:43:23.127    19 Feb 2026 18:46:01.999      158.87230231    
19 Feb 2026 20:22:52.524    19 Feb 2026 20:26:09.419      196.89432689    


Number of events : 22


Observer: Nemea
Start Time (UTC)            Stop Time (UTC)               Duration (s)         
13 Feb 2026 14:30:21.523    13 Feb 2026 14:31:20.511      58.988087496    
13 Feb 2026 16:09:00.067    13 Feb 2026 16:11:56.973      176.90652291    
13 Feb 2026 21:11:02.139    13 Feb 2026 21:14:03.571      181.43216661    
14 Feb 2026 14:21:39.253    14 Feb 2026 14:24:33.317      174.06477233    
14 Feb 2026 16:01:53.260    14 Feb 2026 16:03:52.113      118.85257243    
14 Feb 2026 21:03:08.423    14 Feb 2026 21:06:42.551      214.12769750    
15 Feb 2026 14:13:34.047    15 Feb 2026 14:17:11.652      217.60495340    
15 Feb 2026 20:55:20.651    15 Feb 2026 20:59:12.829      232.17741509    
16 Feb 2026 14:05:42.722    16 Feb 2026 14:09:38.770      236.04787476    
16 Feb 2026 20:47:38.351    16 Feb 2026 20:51:34.876      236.52564262    
17 Feb 2026 13:58:01.168    17 Feb 2026 14:01:58.834      237.66582201    
17 Feb 2026 20:40:02.369    17 Feb 2026 20:43:47.871      225.50199239    
18 Feb 2026 13:50:27.986    18 Feb 2026 13:54:13.279      225.29250286    
18 Feb 2026 18:53:43.531    18 Feb 2026 18:55:01.082      77.550632344    
18 Feb 2026 20:32:35.414    18 Feb 2026 20:35:49.153      193.73877671    
19 Feb 2026 13:43:03.065    19 Feb 2026 13:46:22.226      199.16091179    
19 Feb 2026 18:45:29.143    19 Feb 2026 18:48:04.967      155.82400173    
19 Feb 2026 20:25:27.071    19 Feb 2026 20:27:29.198      122.12692131    


Number of events : 18


Observer: Nicosia
Start Time (UTC)            Stop Time (UTC)               Duration (s)         
13 Feb 2026 14:30:06.126    13 Feb 2026 14:34:01.942      235.81656724    
13 Feb 2026 21:13:09.123    13 Feb 2026 21:16:54.014      224.89071622    
14 Feb 2026 14:22:36.156    14 Feb 2026 14:26:13.338      217.18216507    
14 Feb 2026 21:05:23.782    14 Feb 2026 21:09:19.606      235.82332798    
15 Feb 2026 14:15:17.527    15 Feb 2026 14:18:16.346      178.81942273    
15 Feb 2026 20:57:46.105    15 Feb 2026 21:01:34.695      228.58994367    
16 Feb 2026 12:28:31.655    16 Feb 2026 12:30:26.029      114.37425610    
16 Feb 2026 14:08:17.590    16 Feb 2026 14:10:03.658      106.06860342    
16 Feb 2026 20:50:18.506    16 Feb 2026 20:53:36.963      198.45651289    
17 Feb 2026 12:20:07.082    17 Feb 2026 12:23:22.192      195.11003889    
17 Feb 2026 19:03:47.066    17 Feb 2026 19:05:14.864      87.797765143    
17 Feb 2026 20:43:10.687    17 Feb 2026 20:45:16.820      126.13338815    
18 Feb 2026 12:12:07.419    18 Feb 2026 12:15:56.063      228.64316236    
18 Feb 2026 18:55:29.707    18 Feb 2026 18:58:20.060      170.35330898    
19 Feb 2026 12:04:21.036    19 Feb 2026 12:08:19.384      238.34737352    
19 Feb 2026 18:47:31.274    19 Feb 2026 18:51:03.333      212.05888800    


Number of events : 16


Observer: Poitiers
Start Time (UTC)            Stop Time (UTC)               Duration (s)         
13 Feb 2026 17:45:34.475    13 Feb 2026 17:49:20.447      225.97262515    
13 Feb 2026 19:25:25.837    13 Feb 2026 19:29:06.789      220.95218837    
13 Feb 2026 21:05:26.987    13 Feb 2026 21:09:13.700      226.71366952    
13 Feb 2026 22:45:22.876    13 Feb 2026 22:48:43.143      200.26721834    
14 Feb 2026 17:37:47.941    14 Feb 2026 17:41:43.889      235.94804598    
14 Feb 2026 19:17:51.033    14 Feb 2026 19:21:27.568      216.53479444    
14 Feb 2026 20:57:46.208    14 Feb 2026 21:01:38.529      232.32153867    
14 Feb 2026 22:37:57.668    14 Feb 2026 22:40:40.876      163.20786928    
15 Feb 2026 17:30:05.483    15 Feb 2026 17:34:05.150      239.66737805    
15 Feb 2026 19:10:15.583    15 Feb 2026 19:13:49.476      213.89344919    
15 Feb 2026 20:50:05.369    15 Feb 2026 20:54:02.134      236.76471231    
15 Feb 2026 22:30:50.533    15 Feb 2026 22:32:18.338      87.804237963    
16 Feb 2026 17:22:26.082    16 Feb 2026 17:26:25.102      239.01976696    
16 Feb 2026 19:02:39.127    16 Feb 2026 19:06:12.593      213.46585866    
16 Feb 2026 20:42:24.971    16 Feb 2026 20:46:23.807      238.83582798    
17 Feb 2026 15:36:00.512    17 Feb 2026 15:38:23.731      143.21878979    
17 Feb 2026 17:14:48.916    17 Feb 2026 17:18:44.393      235.47660982    
17 Feb 2026 18:55:01.486    17 Feb 2026 18:58:36.814      215.32805655    
17 Feb 2026 20:34:45.605    17 Feb 2026 20:38:42.769      237.16363484    
18 Feb 2026 15:27:52.787    18 Feb 2026 15:31:02.978      190.19057534    
18 Feb 2026 17:07:13.254    18 Feb 2026 17:11:03.555      230.30032560    
18 Feb 2026 18:47:22.664    18 Feb 2026 18:51:01.846      219.18151615    
18 Feb 2026 20:27:08.035    18 Feb 2026 20:30:58.100      230.06492089    
19 Feb 2026 15:19:56.472    19 Feb 2026 15:23:32.976      216.50352732    
19 Feb 2026 16:59:38.416    19 Feb 2026 17:03:23.044      224.62733755    
19 Feb 2026 18:39:42.838    19 Feb 2026 18:43:27.240      224.40267100    
19 Feb 2026 20:19:33.368    19 Feb 2026 20:23:08.561      215.19223263    


Number of events : 27


Observer: Porto
Start Time (UTC)            Stop Time (UTC)               Duration (s)         
13 Feb 2026 00:31:57.776    13 Feb 2026 00:35:05.138      187.36216770    
13 Feb 2026 17:43:12.276    13 Feb 2026 17:47:07.970      235.69326745    
13 Feb 2026 19:24:23.966    13 Feb 2026 19:25:57.893      93.926839158    
13 Feb 2026 22:44:28.624    13 Feb 2026 22:47:49.228      200.60385464    
14 Feb 2026 00:24:47.043    14 Feb 2026 00:26:47.336      120.29330372    
14 Feb 2026 17:35:29.789    14 Feb 2026 17:39:29.022      239.23247263    
14 Feb 2026 22:36:40.944    14 Feb 2026 22:40:22.110      221.16612744    
15 Feb 2026 17:27:53.501    15 Feb 2026 17:31:46.361      232.85975304    
15 Feb 2026 22:28:56.053    15 Feb 2026 22:32:49.853      233.80043360    
16 Feb 2026 17:20:22.635    16 Feb 2026 17:24:00.699      218.06402165    
16 Feb 2026 20:42:54.070    16 Feb 2026 20:43:20.745      26.675489615    
16 Feb 2026 22:21:14.348    16 Feb 2026 22:25:11.973      237.62548232    
17 Feb 2026 15:33:38.835    17 Feb 2026 15:36:08.567      149.73253186    
17 Feb 2026 17:12:56.794    17 Feb 2026 17:16:12.335      195.54099046    
17 Feb 2026 20:34:38.980    17 Feb 2026 20:36:28.149      109.16926648    
17 Feb 2026 22:13:36.688    17 Feb 2026 22:17:27.553      230.86528903    
18 Feb 2026 15:25:28.639    18 Feb 2026 15:28:50.819      202.17991951    
18 Feb 2026 17:05:35.979    18 Feb 2026 17:08:21.135      165.15557767    
18 Feb 2026 20:26:42.055    18 Feb 2026 20:29:15.649      153.59459475    
18 Feb 2026 22:06:04.774    18 Feb 2026 22:09:34.863      210.08920572    
19 Feb 2026 15:17:32.996    19 Feb 2026 15:21:21.052      228.05582051    
19 Feb 2026 16:58:21.040    19 Feb 2026 17:00:26.077      125.03668915    
19 Feb 2026 20:18:49.816    19 Feb 2026 20:21:56.505      186.68884858    
19 Feb 2026 21:58:42.644    19 Feb 2026 22:01:29.859      167.21500657    


Number of events : 24


Observer: Rennes
Start Time (UTC)            Stop Time (UTC)               Duration (s)         
13 Feb 2026 17:45:38.713    13 Feb 2026 17:48:51.610      192.89707564    
13 Feb 2026 19:24:56.090    13 Feb 2026 19:28:52.137      236.04710876    
13 Feb 2026 21:04:53.058    13 Feb 2026 21:08:48.234      235.17613116    
13 Feb 2026 22:44:53.404    13 Feb 2026 22:48:06.368      192.96435581    
14 Feb 2026 17:37:43.982    14 Feb 2026 17:41:20.159      216.17745536    
14 Feb 2026 19:17:18.936    14 Feb 2026 19:21:12.527      233.59054582    
14 Feb 2026 20:57:13.093    14 Feb 2026 21:01:10.677      237.58442157    
14 Feb 2026 22:37:28.586    14 Feb 2026 22:40:03.265      154.67852382    
15 Feb 2026 17:29:55.031    15 Feb 2026 17:33:44.822      229.79150059    
15 Feb 2026 19:09:41.842    15 Feb 2026 19:13:33.478      231.63561306    
15 Feb 2026 20:49:33.100    15 Feb 2026 20:53:32.066      238.96562573    
15 Feb 2026 22:30:23.318    15 Feb 2026 22:31:38.528      75.210544956    
16 Feb 2026 17:22:10.170    16 Feb 2026 17:26:07.159      236.98892591    
16 Feb 2026 19:02:04.433    16 Feb 2026 19:05:55.103      230.66999613    
16 Feb 2026 20:41:53.503    16 Feb 2026 20:45:51.761      238.25829201    
17 Feb 2026 17:14:28.305    17 Feb 2026 17:18:28.110      239.80523312    
17 Feb 2026 18:54:26.459    17 Feb 2026 18:58:17.383      230.92387161    
17 Feb 2026 20:34:14.845    17 Feb 2026 20:38:09.025      234.17944482    
18 Feb 2026 15:28:20.190    18 Feb 2026 15:30:15.815      115.62435116    
18 Feb 2026 17:06:48.600    18 Feb 2026 17:10:48.331      239.73073864    
18 Feb 2026 18:46:47.810    18 Feb 2026 18:50:40.158      232.34795864    
18 Feb 2026 20:26:37.862    18 Feb 2026 20:30:22.951      225.08823231    
19 Feb 2026 15:20:06.847    19 Feb 2026 15:22:59.774      172.92715497    
19 Feb 2026 16:59:10.358    19 Feb 2026 17:03:08.319      237.96083839    
19 Feb 2026 18:39:08.514    19 Feb 2026 18:43:03.132      234.61864293    
19 Feb 2026 20:19:03.654    19 Feb 2026 20:22:32.291      208.63709097    


Number of events : 26


Observer: Strasbourg
Start Time (UTC)            Stop Time (UTC)               Duration (s)         
13 Feb 2026 17:46:45.409    13 Feb 2026 17:50:42.743      237.33351768    
13 Feb 2026 19:26:44.914    13 Feb 2026 19:30:28.978      224.06468061    
13 Feb 2026 21:06:35.156    13 Feb 2026 21:10:33.402      238.24607246    
13 Feb 2026 22:47:43.761    13 Feb 2026 22:48:20.758      36.997230048    
14 Feb 2026 17:39:03.833    14 Feb 2026 17:43:03.595      239.76154088    
14 Feb 2026 19:19:07.836    14 Feb 2026 19:22:51.437      223.60080827    
14 Feb 2026 20:58:55.399    14 Feb 2026 21:02:53.480      238.08176599    
15 Feb 2026 15:53:01.596    15 Feb 2026 15:54:45.660      104.06359361    
15 Feb 2026 17:31:24.675    15 Feb 2026 17:35:23.581      238.90613947    
15 Feb 2026 19:11:29.889    15 Feb 2026 19:15:14.715      224.82544330    
15 Feb 2026 20:51:16.768    15 Feb 2026 20:55:10.815      234.04702720    
16 Feb 2026 15:44:44.259    16 Feb 2026 15:47:33.380      169.12068359    
16 Feb 2026 17:23:47.192    16 Feb 2026 17:27:43.249      236.05670499    
16 Feb 2026 19:03:51.044    16 Feb 2026 19:07:38.563      227.51818449    
16 Feb 2026 20:43:40.075    16 Feb 2026 20:47:24.436      224.36056954    
17 Feb 2026 15:36:43.450    17 Feb 2026 15:40:06.701      203.25107236    
17 Feb 2026 17:16:10.726    17 Feb 2026 17:20:03.044      232.31750656    
17 Feb 2026 18:56:11.421    17 Feb 2026 19:00:02.592      231.17062143    
17 Feb 2026 20:36:06.557    17 Feb 2026 20:39:32.970      206.41342130    
18 Feb 2026 15:28:50.794    18 Feb 2026 15:32:33.912      223.11748354    
18 Feb 2026 17:08:34.682    18 Feb 2026 17:12:23.322      228.63977964    
18 Feb 2026 18:48:31.263    18 Feb 2026 18:52:26.303      235.04037639    
18 Feb 2026 20:28:38.520    18 Feb 2026 20:31:34.000      175.47908616    
19 Feb 2026 15:21:03.540    19 Feb 2026 15:24:57.657      234.11745310    
19 Feb 2026 17:00:58.544    19 Feb 2026 17:04:44.345      225.80135080    
19 Feb 2026 18:40:50.909    19 Feb 2026 18:44:49.114      238.20482626    
19 Feb 2026 20:21:22.376    19 Feb 2026 20:23:21.023      118.64655144    


Number of events : 27


Observer: Tenerife
Start Time (UTC)            Stop Time (UTC)               Duration (s)         
13 Feb 2026 02:12:40.153    13 Feb 2026 02:15:40.670      180.51719911    
13 Feb 2026 17:40:13.116    13 Feb 2026 17:42:51.300      158.18333438    
14 Feb 2026 02:06:05.686    14 Feb 2026 02:06:46.779      41.092981130    
15 Feb 2026 00:18:07.677    15 Feb 2026 00:20:11.823      124.14574617    
15 Feb 2026 15:45:12.346    15 Feb 2026 15:47:53.600      161.25443804    
16 Feb 2026 00:09:53.372    16 Feb 2026 00:13:10.222      196.85052746    
16 Feb 2026 15:37:00.532    16 Feb 2026 15:40:38.493      217.96014566    
17 Feb 2026 00:01:58.114    17 Feb 2026 00:05:46.482      228.36784796    
17 Feb 2026 15:29:09.065    17 Feb 2026 15:33:05.559      236.49397128    
17 Feb 2026 23:54:14.611    17 Feb 2026 23:58:08.093      233.48161712    
18 Feb 2026 15:21:32.100    18 Feb 2026 15:25:20.848      228.74712416    
18 Feb 2026 23:46:43.262    18 Feb 2026 23:50:14.855      211.59314200    
19 Feb 2026 15:14:09.937    19 Feb 2026 15:17:24.260      194.32322524    
19 Feb 2026 23:39:31.575    19 Feb 2026 23:41:59.465      147.88924857    


Number of events : 14


Observer: Tirana
Start Time (UTC)            Stop Time (UTC)               Duration (s)         
13 Feb 2026 16:08:24.770    13 Feb 2026 16:12:23.290      238.52019495    
13 Feb 2026 21:09:39.256    13 Feb 2026 21:13:19.529      220.27254134    
14 Feb 2026 16:00:49.776    14 Feb 2026 16:04:39.824      230.04838633    
14 Feb 2026 21:01:54.160    14 Feb 2026 21:05:47.532      233.37216948    
15 Feb 2026 14:15:16.684    15 Feb 2026 14:15:48.253      31.568938983    
15 Feb 2026 15:53:20.241    15 Feb 2026 15:56:53.323      213.08219454    
15 Feb 2026 20:54:12.364    15 Feb 2026 20:58:09.779      237.41561340    
16 Feb 2026 14:06:26.230    16 Feb 2026 14:09:08.710      162.47968725    
16 Feb 2026 15:45:55.899    16 Feb 2026 15:49:03.952      188.05340189    
16 Feb 2026 19:07:40.677    16 Feb 2026 19:09:21.901      101.22412186    
16 Feb 2026 20:46:34.718    16 Feb 2026 20:50:25.366      230.64836862    
17 Feb 2026 13:58:19.396    17 Feb 2026 14:01:48.068      208.67163520    
17 Feb 2026 15:38:37.012    17 Feb 2026 15:41:11.314      154.30165093    
17 Feb 2026 18:59:41.880    17 Feb 2026 19:02:11.420      149.54065344    
17 Feb 2026 20:39:02.946    17 Feb 2026 20:42:32.543      209.59718496    
18 Feb 2026 13:50:25.662    18 Feb 2026 13:54:16.865      231.20295064    
18 Feb 2026 15:31:25.308    18 Feb 2026 15:33:13.504      108.19576322    
18 Feb 2026 18:51:48.799    18 Feb 2026 18:54:53.234      184.43411705    
18 Feb 2026 20:31:41.205    18 Feb 2026 20:34:27.150      165.94546884    
19 Feb 2026 13:42:40.525    19 Feb 2026 13:46:39.603      239.07845265    
19 Feb 2026 18:43:59.125    19 Feb 2026 18:47:29.471      210.34588809    
19 Feb 2026 20:24:51.987    19 Feb 2026 20:25:46.708      54.721536383    


Number of events : 22


