GMATContacts/full65.txt

Target: DefaultSC

Observer: Avilla
Start Time (UTC)            Stop Time (UTC)               Duration (s)         
13 Feb 2026 00:33:29.818    13 Feb 2026 00:35:31.077      121.25835393    
13 Feb 2026 16:05:13.744    13 Feb 2026 16:09:08.763      235.01940299    
14 Feb 2026 00:26:10.589    14 Feb 2026 00:29:07.222      176.63314882    
14 Feb 2026 15:58:20.497    14 Feb 2026 16:02:13.719      233.22188269    
15 Feb 2026 00:19:02.364    15 Feb 2026 00:22:30.801      208.43684280    
15 Feb 2026 15:51:33.337    15 Feb 2026 15:55:14.072      220.73553954    
16 Feb 2026 00:12:00.347    16 Feb 2026 00:15:46.642      226.29444811    
16 Feb 2026 15:44:53.015    16 Feb 2026 15:48:09.105      196.08983832    
17 Feb 2026 00:05:03.184    17 Feb 2026 00:08:56.132      232.94875219    
17 Feb 2026 15:38:22.047    17 Feb 2026 15:40:56.334      154.28776704    
17 Feb 2026 23:58:10.637    18 Feb 2026 00:01:59.542      228.90454290    
18 Feb 2026 15:32:12.660    18 Feb 2026 15:33:23.568      70.908323710    
18 Feb 2026 23:51:23.273    18 Feb 2026 23:54:56.331      213.05828003    
19 Feb 2026 23:44:42.919    19 Feb 2026 23:47:44.701      181.78213203    


Number of events : 14


Observer: Barcelona
Start Time (UTC)            Stop Time (UTC)               Duration (s)         
13 Feb 2026 00:33:12.247    13 Feb 2026 00:37:00.947      228.69999387    
13 Feb 2026 16:06:22.652    13 Feb 2026 16:09:54.147      211.49506399    
14 Feb 2026 00:26:15.861    14 Feb 2026 00:30:09.552      233.69163283    
14 Feb 2026 15:59:45.754    14 Feb 2026 16:02:46.614      180.86041416    
15 Feb 2026 00:19:23.896    15 Feb 2026 00:23:12.275      228.37928077    
15 Feb 2026 15:53:20.249    15 Feb 2026 15:55:29.246      128.99759574    
16 Feb 2026 00:12:37.004    16 Feb 2026 00:16:08.491      211.48722167    
17 Feb 2026 00:05:57.107    17 Feb 2026 00:08:56.302      179.19470170    
17 Feb 2026 14:01:32.678    17 Feb 2026 14:03:22.581      109.90324114    
17 Feb 2026 23:59:30.599    18 Feb 2026 00:01:29.336      118.73704016    
18 Feb 2026 13:54:02.849    18 Feb 2026 13:56:58.783      175.93385418    
19 Feb 2026 13:46:49.369    19 Feb 2026 13:50:20.024      210.65501844    
19 Feb 2026 22:07:35.121    19 Feb 2026 22:09:29.051      113.93002351    


Number of events : 13


Observer: Delft
Start Time (UTC)            Stop Time (UTC)               Duration (s)         
13 Feb 2026 00:31:45.333    13 Feb 2026 00:34:05.468      140.13543294    
13 Feb 2026 16:08:51.416    13 Feb 2026 16:12:40.941      229.52479074    
13 Feb 2026 22:46:16.567    13 Feb 2026 22:49:24.407      187.84013578    
14 Feb 2026 00:25:31.425    14 Feb 2026 00:26:24.837      53.411969834    
14 Feb 2026 16:01:53.737    14 Feb 2026 16:05:49.720      235.98295734    
14 Feb 2026 22:39:15.284    14 Feb 2026 22:42:42.982      207.69746621    
15 Feb 2026 15:54:59.524    15 Feb 2026 15:58:56.305      236.78020081    
15 Feb 2026 22:32:16.220    15 Feb 2026 22:35:58.104      221.88403085    
16 Feb 2026 15:48:08.522    16 Feb 2026 15:52:00.945      232.42332002    
16 Feb 2026 22:25:19.090    16 Feb 2026 22:29:10.043      230.95254590    
17 Feb 2026 15:41:20.635    17 Feb 2026 15:45:03.728      223.09282502    
17 Feb 2026 22:18:23.829    17 Feb 2026 22:22:18.855      235.02608263    
18 Feb 2026 15:34:35.925    18 Feb 2026 15:38:04.580      208.65444874    
18 Feb 2026 22:11:30.530    18 Feb 2026 22:15:24.439      233.90916050    
19 Feb 2026 13:50:47.452    19 Feb 2026 13:51:54.412      66.960579017    
19 Feb 2026 15:27:54.668    19 Feb 2026 15:31:03.212      188.54409526    
19 Feb 2026 22:04:39.456    19 Feb 2026 22:08:26.526      227.07072822    


Number of events : 17


Observer: Gibraltar
Start Time (UTC)            Stop Time (UTC)               Duration (s)         
13 Feb 2026 16:04:07.250    13 Feb 2026 16:08:00.613      233.36290580    
14 Feb 2026 15:57:20.517    14 Feb 2026 16:01:00.006      219.48908370    
15 Feb 2026 00:20:43.691    15 Feb 2026 00:22:31.468      107.77706013    
15 Feb 2026 15:50:42.020    15 Feb 2026 15:53:52.675      190.65476891    
16 Feb 2026 00:13:18.583    16 Feb 2026 00:16:12.733      174.14943322    
16 Feb 2026 15:44:15.954    16 Feb 2026 15:46:34.472      138.51818852    
17 Feb 2026 00:06:08.319    17 Feb 2026 00:09:37.583      209.26379466    
17 Feb 2026 23:59:05.687    18 Feb 2026 00:02:53.278      227.59132708    
18 Feb 2026 23:52:08.929    18 Feb 2026 23:56:01.621      232.69109793    
19 Feb 2026 13:45:39.775    19 Feb 2026 13:47:32.491      112.71541910    
19 Feb 2026 23:45:17.841    19 Feb 2026 23:49:02.859      225.01788342    


Number of events : 11


Observer: Granada
Start Time (UTC)            Stop Time (UTC)               Duration (s)         
13 Feb 2026 16:04:42.759    13 Feb 2026 16:08:25.479      222.71926005    
14 Feb 2026 00:27:25.295    14 Feb 2026 00:29:48.165      142.86984435    
14 Feb 2026 15:58:02.418    14 Feb 2026 16:01:19.849      197.43101774    
15 Feb 2026 00:20:08.916    15 Feb 2026 00:23:20.200      191.28448914    
15 Feb 2026 15:51:32.799    15 Feb 2026 15:54:05.053      152.25457675    
16 Feb 2026 00:13:02.483    16 Feb 2026 00:16:40.735      218.25226714    
16 Feb 2026 15:45:32.859    16 Feb 2026 15:46:22.178      49.318478408    
17 Feb 2026 00:06:02.434    17 Feb 2026 00:09:53.375      230.94102067    
17 Feb 2026 23:59:07.834    18 Feb 2026 00:02:59.099      231.26468179    
18 Feb 2026 13:53:09.577    18 Feb 2026 13:54:51.183      101.60548640    
18 Feb 2026 23:52:18.906    18 Feb 2026 23:55:57.719      218.81328081    
19 Feb 2026 13:45:35.825    19 Feb 2026 13:48:31.351      175.52595808    
19 Feb 2026 23:45:37.177    19 Feb 2026 23:48:47.746      190.56877624    


Number of events : 13


Observer: Lausanne
Start Time (UTC)            Stop Time (UTC)               Duration (s)         
13 Feb 2026 00:32:54.094    13 Feb 2026 00:36:00.988      186.89388984    
13 Feb 2026 16:08:04.668    13 Feb 2026 16:11:39.589      214.92131370    
14 Feb 2026 00:26:20.496    14 Feb 2026 00:28:41.436      140.94086039    
14 Feb 2026 16:01:24.516    14 Feb 2026 16:04:35.850      191.33421541    
14 Feb 2026 22:41:28.816    14 Feb 2026 22:43:17.262      108.44584799    
15 Feb 2026 00:20:25.724    15 Feb 2026 00:20:41.692      15.968156699    
15 Feb 2026 15:54:51.288    15 Feb 2026 15:57:26.637      155.34928405    
15 Feb 2026 22:34:11.374    15 Feb 2026 22:36:53.359      161.98594056    
16 Feb 2026 14:10:27.857    16 Feb 2026 14:11:44.325      76.467856835    
16 Feb 2026 15:48:30.964    16 Feb 2026 15:50:05.977      95.012769196    
16 Feb 2026 22:27:03.451    16 Feb 2026 22:30:18.482      195.03060485    
17 Feb 2026 14:02:50.747    17 Feb 2026 14:05:27.253      156.50539796    
17 Feb 2026 22:20:00.565    17 Feb 2026 22:23:37.119      216.55334537    
18 Feb 2026 13:55:34.334    18 Feb 2026 13:58:50.855      196.52115356    
18 Feb 2026 22:13:01.359    18 Feb 2026 22:16:50.639      229.28023897    
19 Feb 2026 13:48:26.844    19 Feb 2026 13:52:06.912      220.06834089    
19 Feb 2026 22:06:05.370    19 Feb 2026 22:09:59.517      234.14731552    


Number of events : 17


Observer: Lisbon
Start Time (UTC)            Stop Time (UTC)               Duration (s)         
13 Feb 2026 02:11:33.695    13 Feb 2026 02:13:38.344      124.64897406    
13 Feb 2026 16:04:28.420    13 Feb 2026 16:08:08.540      220.11930181    
14 Feb 2026 15:57:26.499    14 Feb 2026 16:01:20.134      233.63535767    
15 Feb 2026 00:20:18.517    15 Feb 2026 00:20:56.376      37.858846528    
15 Feb 2026 15:50:31.360    15 Feb 2026 15:54:26.387      235.02791135    
16 Feb 2026 00:12:32.968    16 Feb 2026 00:14:59.451      146.48325609    
16 Feb 2026 15:43:42.673    16 Feb 2026 15:47:27.662      224.98980321    
17 Feb 2026 00:05:18.069    17 Feb 2026 00:08:30.278      192.20939454    
17 Feb 2026 15:37:01.042    17 Feb 2026 15:40:23.393      202.35098954    
17 Feb 2026 23:58:12.200    18 Feb 2026 00:01:50.520      218.31963595    
18 Feb 2026 15:30:28.748    18 Feb 2026 15:33:11.337      162.58848613    
18 Feb 2026 23:51:12.252    18 Feb 2026 23:55:03.324      231.07137477    
19 Feb 2026 15:24:15.891    19 Feb 2026 15:25:41.437      85.546496487    
19 Feb 2026 23:44:17.370    19 Feb 2026 23:48:09.583      232.21318392    


Number of events : 14


Observer: Messina
Start Time (UTC)            Stop Time (UTC)               Duration (s)         
13 Feb 2026 00:36:09.911    13 Feb 2026 00:38:13.917      124.00538848    
13 Feb 2026 14:28:50.754    13 Feb 2026 14:32:34.919      224.16503273    
14 Feb 2026 14:21:50.377    14 Feb 2026 14:25:45.269      234.89237032    
14 Feb 2026 22:45:10.019    14 Feb 2026 22:45:16.575      6.5566293430    
15 Feb 2026 14:14:56.717    15 Feb 2026 14:18:50.348      233.63162574    
15 Feb 2026 22:37:10.457    15 Feb 2026 22:39:33.680      143.22233847    
16 Feb 2026 14:08:09.656    16 Feb 2026 14:11:50.308      220.65171223    
16 Feb 2026 22:29:54.698    16 Feb 2026 22:33:05.381      190.68296039    
17 Feb 2026 14:01:30.111    17 Feb 2026 14:04:44.270      194.15939277    
17 Feb 2026 22:22:48.423    17 Feb 2026 22:26:26.038      217.61491487    
18 Feb 2026 13:55:01.294    18 Feb 2026 13:57:29.065      147.77038920    
18 Feb 2026 22:15:48.247    18 Feb 2026 22:19:39.078      230.83138790    
19 Feb 2026 13:49:05.716    19 Feb 2026 13:49:42.223      36.506667116    
19 Feb 2026 22:08:53.241    19 Feb 2026 22:12:45.468      232.22698043    


Number of events : 14


Observer: Naples
Start Time (UTC)            Stop Time (UTC)               Duration (s)         
13 Feb 2026 00:35:31.337    13 Feb 2026 00:37:17.037      105.70006947    
13 Feb 2026 14:29:42.033    13 Feb 2026 14:32:50.708      188.67519116    
14 Feb 2026 14:22:31.550    14 Feb 2026 14:26:09.381      217.83041077    
14 Feb 2026 22:43:26.805    14 Feb 2026 22:45:27.332      120.52620611    
15 Feb 2026 14:15:29.005    15 Feb 2026 14:19:21.530      232.52561308    
15 Feb 2026 22:36:07.758    15 Feb 2026 22:39:03.486      175.72820659    
16 Feb 2026 14:08:32.823    16 Feb 2026 14:12:28.757      235.93322856    
16 Feb 2026 22:28:59.546    16 Feb 2026 22:32:27.245      207.69862669    
17 Feb 2026 14:01:42.532    17 Feb 2026 14:05:31.560      229.02787254    
17 Feb 2026 22:21:57.418    17 Feb 2026 22:25:43.392      225.97326008    
18 Feb 2026 13:54:58.391    18 Feb 2026 13:58:29.711      211.31993387    
18 Feb 2026 22:15:00.015    18 Feb 2026 22:18:53.316      233.30096500    
19 Feb 2026 13:48:21.681    19 Feb 2026 13:51:21.958      180.27706450    
19 Feb 2026 22:08:07.066    19 Feb 2026 22:11:57.319      230.25307744    


Number of events : 14


Observer: Nemea
Start Time (UTC)            Stop Time (UTC)               Duration (s)         
13 Feb 2026 14:29:38.418    13 Feb 2026 14:33:12.326      213.90835148    
13 Feb 2026 22:51:30.962    13 Feb 2026 22:54:42.171      191.20890648    
14 Feb 2026 14:23:01.777    14 Feb 2026 14:26:03.794      182.01661891    
14 Feb 2026 22:44:24.705    14 Feb 2026 22:48:02.713      218.00785367    
15 Feb 2026 14:16:38.520    15 Feb 2026 14:18:43.451      124.93123967    
15 Feb 2026 22:37:24.628    15 Feb 2026 22:41:15.560      230.93197733    
16 Feb 2026 22:30:29.811    16 Feb 2026 22:34:21.669      231.85801555    
17 Feb 2026 22:23:40.432    17 Feb 2026 22:27:20.902      220.47009640    
18 Feb 2026 12:17:36.209    18 Feb 2026 12:20:03.168      146.95972013    
18 Feb 2026 22:16:57.846    18 Feb 2026 22:20:11.934      194.08813014    
19 Feb 2026 12:10:14.898    19 Feb 2026 12:13:31.578      196.67960862    
19 Feb 2026 22:10:26.420    19 Feb 2026 22:12:50.428      144.00774051    


Number of events : 12


Observer: Nicosia
Start Time (UTC)            Stop Time (UTC)               Duration (s)         
13 Feb 2026 12:52:23.453    13 Feb 2026 12:55:11.240      167.78607632    
13 Feb 2026 22:53:08.775    13 Feb 2026 22:56:52.273      223.49796264    
14 Feb 2026 12:45:06.654    14 Feb 2026 12:48:35.641      208.98721952    
14 Feb 2026 22:46:25.407    14 Feb 2026 22:49:44.238      198.83121320    
15 Feb 2026 12:38:00.864    15 Feb 2026 12:41:50.383      229.51873094    
15 Feb 2026 22:39:53.319    15 Feb 2026 22:42:23.580      150.26112580    
16 Feb 2026 12:31:03.143    16 Feb 2026 12:34:58.445      235.30207094    
17 Feb 2026 12:24:12.729    17 Feb 2026 12:28:00.631      227.90189451    
18 Feb 2026 12:17:30.115    18 Feb 2026 12:20:56.492      206.37727812    
18 Feb 2026 20:41:48.201    18 Feb 2026 20:42:45.242      57.040912192    
19 Feb 2026 12:10:57.741    19 Feb 2026 12:13:43.636      165.89429292    
19 Feb 2026 20:34:06.953    19 Feb 2026 20:36:42.952      155.99876535    


Number of events : 12


Observer: Poitiers
Start Time (UTC)            Stop Time (UTC)               Duration (s)         
13 Feb 2026 00:31:44.741    13 Feb 2026 00:35:38.353      233.61222268    
13 Feb 2026 16:07:13.970    13 Feb 2026 16:11:08.856      234.88594842    
14 Feb 2026 00:24:54.154    14 Feb 2026 00:28:39.551      225.39648539    
14 Feb 2026 16:00:19.125    14 Feb 2026 16:04:15.500      236.37572232    
15 Feb 2026 00:18:07.635    15 Feb 2026 00:21:35.292      207.65735975    
15 Feb 2026 15:53:28.762    15 Feb 2026 15:57:19.071      230.30940131    
16 Feb 2026 00:11:26.895    16 Feb 2026 00:14:23.877      176.98185663    
16 Feb 2026 15:46:42.942    16 Feb 2026 15:50:19.519      216.57744062    
16 Feb 2026 22:27:20.773    16 Feb 2026 22:28:04.869      44.095941167    
17 Feb 2026 00:04:56.971    17 Feb 2026 00:07:00.277      123.30690071    
17 Feb 2026 15:40:02.176    17 Feb 2026 15:43:16.343      194.16770563    
17 Feb 2026 22:19:46.199    17 Feb 2026 22:21:59.077      132.87795590    
18 Feb 2026 15:33:27.887    18 Feb 2026 15:36:08.128      160.24081700    
18 Feb 2026 22:12:33.760    18 Feb 2026 22:15:29.703      175.94319424    
19 Feb 2026 13:49:06.192    19 Feb 2026 13:50:24.345      78.153020446    
19 Feb 2026 15:27:04.812    19 Feb 2026 15:28:50.144      105.33280255    
19 Feb 2026 22:05:28.153    19 Feb 2026 22:08:52.057      203.90401402    


Number of events : 17


Observer: Porto
Start Time (UTC)            Stop Time (UTC)               Duration (s)         
13 Feb 2026 16:05:20.937    13 Feb 2026 16:08:44.356      203.41957973    
14 Feb 2026 00:26:01.162    14 Feb 2026 00:27:46.162      105.00017793    
14 Feb 2026 15:58:14.255    14 Feb 2026 16:01:59.837      225.58282610    
15 Feb 2026 00:18:38.872    15 Feb 2026 00:21:25.959      167.08689861    
15 Feb 2026 15:51:14.523    15 Feb 2026 15:55:09.795      235.27254924    
16 Feb 2026 00:11:29.286    16 Feb 2026 00:14:51.491      202.20547855    
16 Feb 2026 15:44:20.749    16 Feb 2026 15:48:15.247      234.49829493    
17 Feb 2026 00:04:26.142    17 Feb 2026 00:08:09.053      222.91109227    
17 Feb 2026 15:37:32.757    17 Feb 2026 15:41:16.395      223.63812388    
17 Feb 2026 23:57:27.765    18 Feb 2026 00:01:20.346      232.58121370    
18 Feb 2026 15:30:51.097    18 Feb 2026 15:34:12.719      201.62178754    
18 Feb 2026 23:50:33.719    18 Feb 2026 23:54:25.838      232.11908208    
19 Feb 2026 15:24:17.643    19 Feb 2026 15:27:02.372      164.72868745    
19 Feb 2026 23:43:44.291    19 Feb 2026 23:47:25.265      220.97461238    


Number of events : 14


Observer: Rennes
Start Time (UTC)            Stop Time (UTC)               Duration (s)         
13 Feb 2026 00:31:11.953    13 Feb 2026 00:35:06.743      234.78951242    
13 Feb 2026 16:07:26.417    13 Feb 2026 16:11:03.248      216.83140442    
14 Feb 2026 00:24:19.940    14 Feb 2026 00:28:10.030      230.09053243    
14 Feb 2026 16:00:24.273    14 Feb 2026 16:04:15.132      230.85927606    
15 Feb 2026 00:17:31.304    15 Feb 2026 00:21:08.569      217.26492966    
15 Feb 2026 15:53:26.960    15 Feb 2026 15:57:23.557      236.59687601    
16 Feb 2026 00:10:47.116    16 Feb 2026 00:14:01.298      194.18278991    
16 Feb 2026 15:46:33.950    16 Feb 2026 15:50:29.057      235.10720709    
16 Feb 2026 22:26:54.171    16 Feb 2026 22:27:23.591      29.420421040    
17 Feb 2026 00:04:09.938    17 Feb 2026 00:06:45.660      155.72205631    
17 Feb 2026 15:39:45.073    17 Feb 2026 15:43:31.809      226.73564907    
17 Feb 2026 22:19:15.949    17 Feb 2026 22:21:21.883      125.93416844    
17 Feb 2026 23:57:49.989    17 Feb 2026 23:59:11.440      81.450947828    
18 Feb 2026 15:33:00.469    18 Feb 2026 15:36:31.677      211.20865247    
18 Feb 2026 22:12:03.390    18 Feb 2026 22:14:53.119      169.72947065    
19 Feb 2026 15:26:20.707    19 Feb 2026 15:29:28.098      187.39141814    
19 Feb 2026 22:04:57.591    19 Feb 2026 22:08:16.199      198.60843132    


Number of events : 17


Observer: Strasbourg
Start Time (UTC)            Stop Time (UTC)               Duration (s)         
13 Feb 2026 00:32:50.218    13 Feb 2026 00:35:37.148      166.92964740    
13 Feb 2026 16:08:16.843    13 Feb 2026 16:11:59.543      222.70059345    
13 Feb 2026 22:48:14.167    13 Feb 2026 22:49:51.752      97.584803437    
14 Feb 2026 00:26:24.353    14 Feb 2026 00:28:09.169      104.81668089    
14 Feb 2026 16:01:33.843    14 Feb 2026 16:04:58.154      204.31044004    
14 Feb 2026 22:40:55.463    14 Feb 2026 22:43:29.606      154.14224976    
15 Feb 2026 15:54:56.285    15 Feb 2026 15:57:52.738      176.45262494    
15 Feb 2026 22:33:47.003    15 Feb 2026 22:36:55.796      188.79305539    
16 Feb 2026 14:11:05.964    16 Feb 2026 14:11:41.231      35.267215606    
16 Feb 2026 15:48:26.596    16 Feb 2026 15:50:40.869      134.27332338    
16 Feb 2026 22:26:43.595    16 Feb 2026 22:30:15.519      211.92394953    
17 Feb 2026 14:03:14.803    17 Feb 2026 14:05:37.871      143.06758455    
17 Feb 2026 15:42:17.722    17 Feb 2026 15:43:09.606      51.883833634    
17 Feb 2026 22:19:43.741    17 Feb 2026 22:23:30.277      226.53603489    
18 Feb 2026 13:55:55.759    18 Feb 2026 13:59:03.753      187.99342623    
18 Feb 2026 22:12:46.898    18 Feb 2026 22:16:40.620      233.72240583    
19 Feb 2026 13:48:46.546    19 Feb 2026 13:52:21.167      214.62184936    
19 Feb 2026 22:05:52.969    19 Feb 2026 22:09:46.652      233.68208500    


Number of events : 18


Observer: Tenerife
Start Time (UTC)            Stop Time (UTC)               Duration (s)         
13 Feb 2026 02:12:46.399    13 Feb 2026 02:15:56.683      190.28463727    
13 Feb 2026 16:01:23.837    13 Feb 2026 16:04:44.532      200.69532028    
14 Feb 2026 02:05:37.993    14 Feb 2026 02:09:17.650      219.65705641    
14 Feb 2026 15:54:15.275    14 Feb 2026 15:58:01.642      226.36711953    
15 Feb 2026 01:58:38.157    15 Feb 2026 02:02:28.687      230.53050565    
15 Feb 2026 15:47:16.443    15 Feb 2026 15:51:10.269      233.82572861    
16 Feb 2026 01:51:45.747    16 Feb 2026 01:55:30.997      225.25001698    
16 Feb 2026 15:40:26.264    16 Feb 2026 15:44:11.542      225.27816289    
17 Feb 2026 01:45:01.630    17 Feb 2026 01:48:23.765      202.13462737    
17 Feb 2026 15:33:45.593    17 Feb 2026 15:37:04.663      199.06961401    
18 Feb 2026 01:38:30.072    18 Feb 2026 01:41:02.773      152.70157600    
18 Feb 2026 15:27:18.822    18 Feb 2026 15:29:45.307      146.48549531    


Number of events : 12


Observer: Tirana
Start Time (UTC)            Stop Time (UTC)               Duration (s)         
13 Feb 2026 14:29:56.289    13 Feb 2026 14:33:50.689      234.40033511    
13 Feb 2026 22:50:20.025    13 Feb 2026 22:53:33.193      193.16727351    
14 Feb 2026 14:23:01.601    14 Feb 2026 14:26:56.812      235.21110916    
14 Feb 2026 22:43:15.106    14 Feb 2026 22:46:52.986      217.87923871    
15 Feb 2026 14:16:12.727    15 Feb 2026 14:19:58.595      225.86712915    
15 Feb 2026 22:36:15.342    15 Feb 2026 22:40:06.113      230.77098979    
16 Feb 2026 14:09:30.103    16 Feb 2026 14:12:55.630      205.52670469    
16 Feb 2026 22:29:20.003    16 Feb 2026 22:33:13.331      233.32781339    
17 Feb 2026 14:02:55.352    17 Feb 2026 14:05:46.324      170.97296024    
17 Feb 2026 22:22:29.169    17 Feb 2026 22:26:14.591      225.42169994    
18 Feb 2026 13:56:34.294    18 Feb 2026 13:58:24.888      110.59409876    
18 Feb 2026 22:15:43.711    18 Feb 2026 22:19:09.047      205.33544297    
19 Feb 2026 22:09:06.098    19 Feb 2026 22:11:54.250      168.15177414    


Number of events : 13


