GMATContacts/sixA50RF.txt

Target: DefaultSC

Observer: Delft
Start Time (UTC)            Stop Time (UTC)               Duration (s)         
13 Feb 2026 16:08:27.627    13 Feb 2026 16:11:20.261      172.63417477    
13 Feb 2026 17:44:55.558    13 Feb 2026 17:52:36.383      460.82513700    
13 Feb 2026 19:24:02.994    13 Feb 2026 19:32:18.867      495.87345826    
13 Feb 2026 21:03:40.296    13 Feb 2026 21:11:46.177      485.88080759    
13 Feb 2026 22:43:43.841    13 Feb 2026 22:50:03.071      379.23004014    
14 Feb 2026 15:59:46.954    14 Feb 2026 16:04:19.629      272.67530604    
14 Feb 2026 17:37:05.235    14 Feb 2026 17:44:57.708      472.47327401    
14 Feb 2026 19:16:21.187    14 Feb 2026 19:24:37.792      496.60488283    
14 Feb 2026 20:56:00.114    14 Feb 2026 21:04:00.320      480.20658614    
14 Feb 2026 22:36:16.359    14 Feb 2026 22:41:53.807      337.44776293    
15 Feb 2026 15:51:26.516    15 Feb 2026 15:57:00.865      334.34937147    
15 Feb 2026 17:29:17.178    15 Feb 2026 17:37:18.203      481.02485582    
15 Feb 2026 19:08:39.747    15 Feb 2026 19:16:56.484      496.73677774    
15 Feb 2026 20:48:20.461    15 Feb 2026 20:56:12.685      472.22390809    
15 Feb 2026 22:28:56.326    15 Feb 2026 22:33:35.065      278.73903232    
16 Feb 2026 15:43:16.118    16 Feb 2026 15:49:34.099      377.98189010    
16 Feb 2026 17:21:30.963    16 Feb 2026 17:29:38.137      487.17429691    
16 Feb 2026 19:00:58.556    16 Feb 2026 19:09:14.833      496.27662854    
16 Feb 2026 20:40:41.592    16 Feb 2026 20:48:22.853      461.26179131    
16 Feb 2026 22:21:52.341    16 Feb 2026 22:24:58.182      185.84122538    
17 Feb 2026 15:35:12.373    17 Feb 2026 15:42:02.642      410.26872966    
17 Feb 2026 17:13:46.220    17 Feb 2026 17:21:57.699      491.47917732    
17 Feb 2026 18:53:17.544    17 Feb 2026 19:01:32.681      495.13710985    
17 Feb 2026 20:33:03.855    17 Feb 2026 20:40:30.329      446.47394498    
18 Feb 2026 15:27:13.568    18 Feb 2026 15:34:28.122      434.55435470    
18 Feb 2026 17:06:02.632    18 Feb 2026 17:14:17.017      494.38514092    
18 Feb 2026 18:45:36.691    18 Feb 2026 18:53:49.827      493.13656561    
18 Feb 2026 20:25:27.740    18 Feb 2026 20:32:34.496      426.75560148    
19 Feb 2026 13:44:05.442    19 Feb 2026 13:44:27.933      22.491662228    
19 Feb 2026 15:19:18.635    19 Feb 2026 15:26:51.502      452.86713538    
19 Feb 2026 16:58:19.923    19 Feb 2026 17:06:36.161      496.23784914    
19 Feb 2026 18:37:56.027    19 Feb 2026 18:46:06.026      489.99919107    
19 Feb 2026 20:17:53.952    19 Feb 2026 20:24:34.532      400.57927526    


Number of events : 33


Observer: Granada
Start Time (UTC)            Stop Time (UTC)               Duration (s)         
13 Feb 2026 00:31:15.139    13 Feb 2026 00:39:11.909      476.77000500    
13 Feb 2026 16:02:16.615    13 Feb 2026 16:09:32.189      435.57331857    
13 Feb 2026 17:41:33.051    13 Feb 2026 17:49:28.446      475.39556567    
13 Feb 2026 19:23:31.380    13 Feb 2026 19:28:38.111      306.73068264    
13 Feb 2026 21:04:44.609    13 Feb 2026 21:09:32.343      287.73437084    
13 Feb 2026 22:43:57.664    13 Feb 2026 22:51:37.053      459.38945152    
14 Feb 2026 00:23:42.953    14 Feb 2026 00:31:16.185      453.23182612    
14 Feb 2026 15:54:15.646    14 Feb 2026 16:02:03.390      467.74446052    
14 Feb 2026 17:34:06.454    14 Feb 2026 17:41:43.270      456.81627220    
14 Feb 2026 19:16:14.988    14 Feb 2026 19:20:57.491      282.50355469    
14 Feb 2026 20:57:02.957    14 Feb 2026 21:02:16.545      313.58870940    
14 Feb 2026 22:36:12.667    14 Feb 2026 22:44:09.441      476.77395068    
15 Feb 2026 00:16:16.294    15 Feb 2026 00:23:12.387      416.09224747    
15 Feb 2026 15:46:22.122    15 Feb 2026 15:54:29.725      487.60291245    
15 Feb 2026 17:26:43.201    15 Feb 2026 17:33:57.492      434.29081477    
15 Feb 2026 19:08:56.346    15 Feb 2026 19:13:20.259      263.91329550    
15 Feb 2026 20:49:19.183    15 Feb 2026 20:55:01.235      342.05215608    
15 Feb 2026 22:28:28.760    15 Feb 2026 22:36:37.931      489.17132547    
16 Feb 2026 00:08:58.049    16 Feb 2026 00:14:57.722      359.67260686    
16 Feb 2026 15:38:34.810    16 Feb 2026 15:46:52.508      497.69821640    
16 Feb 2026 17:19:22.833    16 Feb 2026 17:26:11.473      408.64022593    
16 Feb 2026 19:01:34.106    16 Feb 2026 19:05:47.347      253.24070673    
16 Feb 2026 20:41:34.063    16 Feb 2026 20:47:45.316      371.25230511    
16 Feb 2026 22:20:46.333    16 Feb 2026 22:29:02.129      495.79568164    
17 Feb 2026 00:01:55.171    17 Feb 2026 00:06:25.331      270.15984461    
17 Feb 2026 13:53:46.081    17 Feb 2026 13:57:51.394      245.31260650    
17 Feb 2026 15:30:52.914    17 Feb 2026 15:39:12.608      499.69395372    
17 Feb 2026 17:12:04.803    17 Feb 2026 17:18:25.609      380.80627096    
17 Feb 2026 18:54:07.261    17 Feb 2026 18:58:19.323      252.06135346    
17 Feb 2026 20:33:48.210    17 Feb 2026 20:40:27.905      399.69534134    
17 Feb 2026 22:13:05.845    17 Feb 2026 22:21:21.595      495.75013019    
17 Feb 2026 23:55:55.002    17 Feb 2026 23:56:47.967      52.965699811    
18 Feb 2026 13:45:07.420    18 Feb 2026 13:50:54.096      346.67581933    
18 Feb 2026 15:23:15.862    18 Feb 2026 15:31:30.649      494.78724031    
18 Feb 2026 17:04:48.441    18 Feb 2026 17:10:40.365      351.92485198    
18 Feb 2026 18:46:35.491    18 Feb 2026 18:50:56.057      260.56692711    
18 Feb 2026 20:26:02.109    18 Feb 2026 20:33:08.299      426.18966963    
18 Feb 2026 22:05:27.880    18 Feb 2026 22:13:35.795      487.91569081    
19 Feb 2026 13:36:49.465    19 Feb 2026 13:43:38.429      408.96390716    
19 Feb 2026 15:15:43.197    19 Feb 2026 15:23:47.117      483.91949128    
19 Feb 2026 16:57:32.912    19 Feb 2026 17:02:56.321      323.40897083    
19 Feb 2026 18:38:59.215    19 Feb 2026 18:43:36.686      277.47112027    
19 Feb 2026 20:18:16.168    19 Feb 2026 20:25:45.927      449.75864006    
19 Feb 2026 21:57:53.231    19 Feb 2026 22:05:43.999      470.76787376    


Number of events : 44


Observer: Nemea
Start Time (UTC)            Stop Time (UTC)               Duration (s)         
13 Feb 2026 14:27:10.537    13 Feb 2026 14:34:32.479      441.94172913    
13 Feb 2026 16:06:30.653    13 Feb 2026 16:14:27.005      476.35156625    
13 Feb 2026 17:48:16.829    13 Feb 2026 17:53:46.647      329.81816742    
13 Feb 2026 19:29:14.593    13 Feb 2026 19:34:46.092      331.49958967    
13 Feb 2026 21:08:34.379    13 Feb 2026 21:16:29.514      475.13485495    
13 Feb 2026 22:48:32.750    13 Feb 2026 22:55:42.562      429.81132885    
14 Feb 2026 14:19:11.078    14 Feb 2026 14:27:02.515      471.43620711    
14 Feb 2026 15:59:03.449    14 Feb 2026 16:06:42.517      459.06786461    
14 Feb 2026 17:40:56.797    14 Feb 2026 17:46:08.644      311.84753309    
14 Feb 2026 19:21:33.495    14 Feb 2026 19:27:27.621      354.12647232    
14 Feb 2026 21:00:50.707    14 Feb 2026 21:08:58.427      487.72044632    
14 Feb 2026 22:41:10.783    14 Feb 2026 22:47:32.324      381.54101759    
15 Feb 2026 14:11:18.620    15 Feb 2026 14:19:28.134      489.51395651    
15 Feb 2026 15:51:39.217    15 Feb 2026 15:58:57.685      438.46863642    
15 Feb 2026 17:33:34.415    15 Feb 2026 17:38:33.921      299.50627692    
15 Feb 2026 19:13:50.606    15 Feb 2026 19:20:09.234      378.62755962    
15 Feb 2026 20:53:08.225    15 Feb 2026 21:01:23.401      495.17581004    
15 Feb 2026 22:34:00.512    15 Feb 2026 22:39:07.982      307.46923161    
16 Feb 2026 12:28:03.745    16 Feb 2026 12:29:05.142      61.396855360    
16 Feb 2026 14:03:32.045    16 Feb 2026 14:11:50.527      498.48195661    
16 Feb 2026 15:44:17.443    16 Feb 2026 15:51:12.900      415.45688297    
16 Feb 2026 17:26:08.782    16 Feb 2026 17:31:02.968      294.18658294    
16 Feb 2026 19:06:06.541    16 Feb 2026 19:12:50.023      403.48211640    
16 Feb 2026 20:45:27.378    16 Feb 2026 20:53:43.991      496.61323907    
16 Feb 2026 22:27:18.490    16 Feb 2026 22:30:13.067      174.57700992    
17 Feb 2026 12:18:29.626    17 Feb 2026 12:23:01.283      271.65726344    
17 Feb 2026 13:55:50.600    17 Feb 2026 14:04:10.495      499.89553902    
17 Feb 2026 15:36:57.527    17 Feb 2026 15:43:28.590      391.06268222    
17 Feb 2026 17:18:39.352    17 Feb 2026 17:23:35.905      296.55241922    
17 Feb 2026 18:58:21.824    17 Feb 2026 19:05:29.221      427.39707105    
17 Feb 2026 20:37:48.703    17 Feb 2026 20:45:59.683      490.97965780    
18 Feb 2026 12:09:57.145    18 Feb 2026 12:15:58.076      360.93107042    
18 Feb 2026 13:48:13.726    18 Feb 2026 13:56:28.637      494.91157453    
18 Feb 2026 15:29:38.754    18 Feb 2026 15:35:45.249      366.49483494    
18 Feb 2026 17:11:06.057    18 Feb 2026 17:16:12.368      306.31009801    
18 Feb 2026 18:50:36.905    18 Feb 2026 18:58:06.184      449.27884924    
18 Feb 2026 20:30:12.908    18 Feb 2026 20:38:09.816      476.90766267    
19 Feb 2026 12:01:42.164    19 Feb 2026 12:08:39.742      417.57826492    
19 Feb 2026 13:40:40.956    19 Feb 2026 13:48:45.428      484.47267363    
19 Feb 2026 15:22:20.275    19 Feb 2026 15:28:03.453      343.17832428    
19 Feb 2026 17:03:29.261    19 Feb 2026 17:08:51.574      322.31367716    
19 Feb 2026 18:42:52.185    19 Feb 2026 18:50:40.368      468.18358350    
19 Feb 2026 20:22:40.999    19 Feb 2026 20:30:13.446      452.44635619    


Number of events : 43


Observer: Nicosia
Start Time (UTC)            Stop Time (UTC)               Duration (s)         
13 Feb 2026 12:50:51.941    13 Feb 2026 12:54:46.510      234.56877238    
13 Feb 2026 14:27:54.987    13 Feb 2026 14:36:13.975      498.98770504    
13 Feb 2026 16:09:32.809    13 Feb 2026 16:15:07.613      334.80474455    
13 Feb 2026 19:32:06.347    13 Feb 2026 19:37:13.251      306.90371844    
13 Feb 2026 21:10:55.090    13 Feb 2026 21:19:06.126      491.03633183    
13 Feb 2026 22:51:53.276    13 Feb 2026 22:56:47.270      293.99395392    
14 Feb 2026 12:42:09.411    14 Feb 2026 12:47:53.560      344.14874688    
14 Feb 2026 14:20:19.533    14 Feb 2026 14:28:30.876      491.34335308    
14 Feb 2026 16:02:25.462    14 Feb 2026 16:07:15.438      289.97554412    
14 Feb 2026 19:24:14.361    14 Feb 2026 19:30:04.601      350.24074512    
14 Feb 2026 21:03:13.010    14 Feb 2026 21:11:28.460      495.45010887    
14 Feb 2026 22:45:27.428    14 Feb 2026 22:47:36.815      129.38732312    
15 Feb 2026 12:33:49.976    15 Feb 2026 12:40:39.767      409.79167689    
15 Feb 2026 14:12:49.053    15 Feb 2026 14:20:45.744      476.69109368    
15 Feb 2026 15:55:21.582    15 Feb 2026 15:59:22.215      240.63264986    
15 Feb 2026 19:16:23.453    15 Feb 2026 19:22:52.148      388.69532871    
15 Feb 2026 20:55:33.681    15 Feb 2026 21:03:45.214      491.53279174    
16 Feb 2026 12:25:43.242    16 Feb 2026 12:33:15.646      452.40347333    
16 Feb 2026 14:05:23.256    16 Feb 2026 14:12:58.914      455.65726999    
16 Feb 2026 15:48:21.180    16 Feb 2026 15:51:27.641      186.46069245    
16 Feb 2026 17:30:15.472    16 Feb 2026 17:32:09.001      113.52897647    
16 Feb 2026 19:08:33.678    16 Feb 2026 19:15:35.695      422.01740770    
16 Feb 2026 20:47:57.821    16 Feb 2026 20:55:55.763      477.94223543    
17 Feb 2026 12:17:45.590    17 Feb 2026 12:25:44.937      479.34721957    
17 Feb 2026 13:58:01.896    17 Feb 2026 14:05:10.642      428.74686350    
17 Feb 2026 15:41:25.034    17 Feb 2026 15:43:30.585      125.55076363    
17 Feb 2026 17:22:17.188    17 Feb 2026 17:25:14.303      177.11425759    
17 Feb 2026 19:00:45.158    17 Feb 2026 19:08:15.033      449.87505872    
17 Feb 2026 20:40:26.511    17 Feb 2026 20:47:59.135      452.62394148    
18 Feb 2026 12:09:55.241    18 Feb 2026 12:18:09.537      494.29606539    
18 Feb 2026 13:50:44.742    18 Feb 2026 13:57:21.128      396.38651926    
18 Feb 2026 15:34:40.720    18 Feb 2026 15:35:23.064      42.344153370    
18 Feb 2026 17:14:22.090    18 Feb 2026 17:18:14.700      232.60978928    
18 Feb 2026 18:52:58.075    18 Feb 2026 19:00:49.944      471.86927532    
18 Feb 2026 20:33:01.540    18 Feb 2026 20:39:53.658      412.11881423    
19 Feb 2026 10:26:18.526    19 Feb 2026 10:28:02.174      103.64781779    
19 Feb 2026 12:02:11.170    19 Feb 2026 12:10:30.579      499.40948691    
19 Feb 2026 13:43:31.570    19 Feb 2026 13:49:30.517      358.94702333    
19 Feb 2026 17:06:28.550    19 Feb 2026 17:11:11.459      282.90944730    
19 Feb 2026 18:45:12.670    19 Feb 2026 18:53:20.190      487.51928882    
19 Feb 2026 20:25:46.367    19 Feb 2026 20:31:35.994      349.62637980    


Number of events : 41


Observer: Porto
Start Time (UTC)            Stop Time (UTC)               Duration (s)         
13 Feb 2026 00:29:33.719    13 Feb 2026 00:37:27.247      473.52719953    
13 Feb 2026 16:04:13.228    13 Feb 2026 16:07:51.787      218.55842684    
13 Feb 2026 17:41:01.037    13 Feb 2026 17:49:19.938      498.90034664    
13 Feb 2026 19:21:23.831    13 Feb 2026 19:28:58.072      454.24112901    
13 Feb 2026 21:02:15.225    13 Feb 2026 21:09:14.078      418.85271329    
13 Feb 2026 22:42:06.321    13 Feb 2026 22:50:09.878      483.55691215    
14 Feb 2026 00:22:00.671    14 Feb 2026 00:29:31.754      451.08318119    
14 Feb 2026 15:55:31.314    14 Feb 2026 16:00:55.950      324.63502565    
14 Feb 2026 17:33:19.170    14 Feb 2026 17:41:40.363      501.19359260    
14 Feb 2026 19:13:55.902    14 Feb 2026 19:21:18.681      442.77921610    
14 Feb 2026 20:54:39.924    14 Feb 2026 21:01:45.130      425.20572619    
14 Feb 2026 22:34:24.784    14 Feb 2026 22:42:36.575      491.79097280    
15 Feb 2026 00:14:31.959    15 Feb 2026 00:21:29.428      417.46856959    
15 Feb 2026 15:47:11.204    15 Feb 2026 15:53:40.706      389.50211622    
15 Feb 2026 17:25:40.849    15 Feb 2026 17:33:59.718      498.86936304    
15 Feb 2026 19:06:28.036    15 Feb 2026 19:13:40.617      432.58190858    
15 Feb 2026 20:47:02.904    15 Feb 2026 20:54:17.043      434.13964034    
15 Feb 2026 22:26:43.595    15 Feb 2026 22:35:00.582      496.98703507    
16 Feb 2026 00:07:09.807    16 Feb 2026 00:13:18.079      368.27267683    
16 Feb 2026 15:39:02.815    16 Feb 2026 15:46:16.183      433.36809673    
16 Feb 2026 17:18:05.568    16 Feb 2026 17:26:18.445      492.87711626    
16 Feb 2026 18:58:59.677    16 Feb 2026 19:06:04.137      424.46025994    
16 Feb 2026 20:39:24.366    16 Feb 2026 20:46:49.296      444.93062234    
16 Feb 2026 22:19:03.162    16 Feb 2026 22:27:21.406      498.24397856    
16 Feb 2026 23:59:58.952    17 Feb 2026 00:04:53.008      294.05552539    
17 Feb 2026 15:31:02.599    17 Feb 2026 15:38:45.965      463.36565550    
17 Feb 2026 17:10:32.832    17 Feb 2026 17:18:36.938      484.10585839    
17 Feb 2026 18:51:30.323    17 Feb 2026 18:58:29.412      419.08893962    
17 Feb 2026 20:31:44.583    17 Feb 2026 20:39:21.323      456.74005524    
17 Feb 2026 22:11:23.945    17 Feb 2026 22:19:38.528      494.58277206    
17 Feb 2026 23:53:16.627    17 Feb 2026 23:55:57.027      160.39965176    
18 Feb 2026 15:23:08.750    18 Feb 2026 15:31:11.887      483.13701432    
18 Feb 2026 17:03:02.140    18 Feb 2026 17:10:55.569      473.42826279    
18 Feb 2026 18:43:59.569    18 Feb 2026 18:50:56.501      416.93189760    
18 Feb 2026 20:24:03.872    18 Feb 2026 20:31:52.550      468.67830270    
18 Feb 2026 22:03:46.500    18 Feb 2026 22:11:51.363      484.86345996    
19 Feb 2026 13:39:38.565    19 Feb 2026 13:41:10.035      91.469429748    
19 Feb 2026 15:15:20.156    19 Feb 2026 15:23:35.079      494.92265153    
19 Feb 2026 16:55:32.966    19 Feb 2026 17:03:14.691      461.72488004    
19 Feb 2026 18:36:27.138    19 Feb 2026 18:43:25.320      418.18135364    
19 Feb 2026 20:16:22.570    19 Feb 2026 20:24:22.418      479.84780307    
19 Feb 2026 21:56:11.543    19 Feb 2026 22:03:59.187      467.64451889    


Number of events : 42


Observer: Tenerife
Start Time (UTC)            Stop Time (UTC)               Duration (s)         
13 Feb 2026 00:31:14.728    13 Feb 2026 00:37:24.683      369.95565748    
13 Feb 2026 02:10:15.857    13 Feb 2026 02:18:03.229      467.37264254    
13 Feb 2026 15:59:03.213    13 Feb 2026 16:05:04.274      361.06101181    
13 Feb 2026 17:37:38.861    13 Feb 2026 17:45:26.497      467.63599733    
14 Feb 2026 00:23:15.918    14 Feb 2026 00:30:14.306      418.38827077    
14 Feb 2026 02:02:48.774    14 Feb 2026 02:10:01.990      433.21574391    
14 Feb 2026 15:50:45.506    14 Feb 2026 15:57:50.715      425.20945121    
14 Feb 2026 17:30:17.622    14 Feb 2026 17:37:34.014      436.39200283    
15 Feb 2026 00:15:21.921    15 Feb 2026 00:22:55.688      453.76680801    
15 Feb 2026 01:55:31.478    15 Feb 2026 02:01:48.804      377.32584137    
15 Feb 2026 15:42:40.997    15 Feb 2026 15:50:26.065      465.06829632    
15 Feb 2026 17:23:04.168    15 Feb 2026 17:29:37.136      392.96781075    
16 Feb 2026 00:07:32.017    16 Feb 2026 00:15:29.714      477.69643015    
16 Feb 2026 01:48:31.287    16 Feb 2026 01:53:16.550      285.26264001    
16 Feb 2026 15:34:46.218    16 Feb 2026 15:42:53.994      487.77638138    
16 Feb 2026 17:15:59.950    16 Feb 2026 17:21:34.554      334.60402930    
16 Feb 2026 22:22:29.301    16 Feb 2026 22:24:38.867      129.56589663    
16 Feb 2026 23:59:46.043    17 Feb 2026 00:07:56.725      490.68283564    
17 Feb 2026 01:42:37.637    17 Feb 2026 01:43:35.995      58.357905841    
17 Feb 2026 15:26:59.559    17 Feb 2026 15:35:16.316      496.75752452    
17 Feb 2026 17:09:08.695    17 Feb 2026 17:13:22.649      253.95351624    
17 Feb 2026 22:13:54.398    17 Feb 2026 22:18:13.913      259.51524301    
17 Feb 2026 23:52:04.211    18 Feb 2026 00:00:16.705      492.49386642    
18 Feb 2026 13:43:06.514    18 Feb 2026 13:45:14.922      128.40849966    
18 Feb 2026 15:19:20.223    18 Feb 2026 15:27:34.034      493.81117093    
18 Feb 2026 17:02:47.627    18 Feb 2026 17:04:44.259      116.63223489    
18 Feb 2026 22:05:43.319    18 Feb 2026 22:11:21.443      338.12379024    
18 Feb 2026 23:44:27.100    18 Feb 2026 23:52:29.274      482.17446485    
19 Feb 2026 13:33:51.307    19 Feb 2026 13:38:55.993      304.68588194    
19 Feb 2026 15:11:47.874    19 Feb 2026 15:19:47.682      479.80877630    
19 Feb 2026 21:57:41.208    19 Feb 2026 22:04:16.382      395.17378758    
19 Feb 2026 23:36:55.785    19 Feb 2026 23:44:33.563      457.77775801    


Number of events : 32


